lat,lon,name,accesslevel,wheelchair
50.9849256,13.6821776,Niederhäslich Bergmannsweg,0,unknown
51.1236227,13.7827891,Sagarder Weg,2,yes
51.0815604,13.9003769,"Ullersdorf, Gasthof",0,unknown
51.0657521,13.8957336,"Weißig, Einkaufszentrum",0,unknown
51.0071397,13.6984978,Stuttgarter Straße,0,unknown
51.0101985,13.701411,Heilbronner Straße,1,limited
51.0031213,13.6861359,Burgker Straße,0,unknown
50.9963329,13.6894923,"Kleinnaundorf, Schule",0,unknown
51.0878926,13.69924,Peschelstraße/Rankestraße,-1,no
51.0869787,13.6393511,Gohliser Weg,0,unknown
51.0038934,13.6269193,Freital Döhlen Daubenbergweg,0,unknown
51.0914484,13.6737687,Spitzhausstraße,0,unknown
51.091306,13.7377208,Lauterbacher Straße,0,unknown
51.1097375,13.7324074,Am Olter,2,yes
51.1260716,13.8414971,"Dresden-Langebrück, Bahnhof",0,unknown
51.1160906,13.7451454,Brunnenweg,2,yes
51.1170369,13.7298416,Waldteichstraße,1,limited
51.1179738,13.7356595,Beckerstraße,0,unknown
51.0937985,13.7351501,Am Hellerhof,1,limited
51.0013754,13.7142667,"Boderitz, Cunnersdorfer Straße",0,unknown
51.1750105,13.8489166,Ottendorf-Okrilla An den Schindertannen,0,unknown
51.1365172,13.9164898,Wachau Feldschlößchen,-1,no
51.1218092,13.9181484,"Radeberg, Badstraße (Ärztehaus)",-1,no
51.1199416,13.9202962,"Radeberg, Oberstraße",-1,no
51.1123387,13.9175181,"Radeberg, Rathenaustraße",0,unknown
51.0432125,13.6799302,Julius-Vahlteich-Straße,2,yes
51.0496707,13.7575474,St.-Benno-Gymnasium,-1,no
51.0876274,13.7377982,Sankt-Pauli-Friedhof,-1,no
51.0771537,13.7329358,Liststraße,2,yes
51.0691565,13.6897521,Werftstraße,2,yes
51.0740736,13.6903622,Overbeckstraße,2,yes
51.0777206,13.6906693,Gewerbegebiet Kaditz,2,yes
51.0814045,13.7331031,Eschebachstraße,0,unknown
51.0154615,13.8609735,Van-Gogh-Straße,0,unknown
51.0409282,13.8262872,Josef-Herrmann-Straße,0,unknown
51.0457397,13.8229272,Künstlerhaus,0,unknown
51.0221494,13.7957148,Pferderennbahn,2,yes
50.9818033,13.7333554,Rippien Dorfplatz,2,yes
51.1454519,13.8000903,"Dresden-Weixdorf, Mitte (Rathausplatz)",0,unknown
51.1137095,13.6322731,Heiterer Blick,0,unknown
51.1264309,13.6340018,Altlindenau,0,unknown
51.1419003,13.8994051,Kleinwachau,2,yes
51.1033309,13.6574682,Haltepunkt Weintraube,0,unknown
51.1133538,13.5853705,Coswig Turbowerke,0,unknown
51.1149689,13.5792194,Coswig Hohe Straße,0,unknown
51.1470927,13.5428475,Neusörnewitz EWS,0,unknown
50.9943148,13.881953,Söbrigen,0,unknown
50.9705962,13.8911315,An der Elbaue,0,unknown
50.9349654,13.6885216,Karsdorf Heidemühle,0,unknown
51.0035907,13.6485059,Freital Hüttenstraße,2,yes
51.1292501,13.6609018,Am Brand,0,unknown
51.1173841,13.5722669,"Kötitz, Gasthaus",0,unknown
51.0439449,13.7247218,Budapester Straße,2,yes
51.156837,13.9035371,"Wachau, Schule",0,unknown
51.1236455,13.9293805,"Radeberg, Krankenhaus",2,yes
51.1196531,13.9219142,"Radeberg, Pulsnitzer Straße",-1,no
51.0235498,13.742393,Räcknitzhöhe,2,yes
51.1076609,13.7729018,Infineon Nord,2,yes
51.1491729,13.5565563,Brockwitzer Straße,-1,no
51.0962612,13.659223,Altserkowitz,0,unknown
51.1309926,13.9208809,"Radeberg, Am Sandberg",0,unknown
51.1268423,13.9259074,"Radeberg, Christoph-Seydel-Straße",0,unknown
51.1250943,13.9291496,"Radeberg, Weg zum Krankenhaus",0,unknown
51.1319894,13.7804102,Zur Steinhöhe,-1,no
51.0600338,13.877568,"Weißig, Am Steinkreuz",0,unknown
51.1349951,13.7786643,Zum Windkanal,2,yes
51.1585476,13.5620137,Haltepunkt,2,yes
50.9900678,13.7627979,Goppeln,0,unknown
51.1343025,13.8989521,"Radeberg-Liegau, Gemeindeverwaltung",-1,no
51.058911,13.8851133,"Weißig, Hutbergschule",0,unknown
51.0859892,13.5844172,Weistropp Dorfplatz,0,unknown
51.0304213,13.7890316,Liebstädter Straße,-1,no
51.0245789,13.713667,Westendstraße,0,unknown
51.1529449,13.7942897,"Weixdorf, Radeburger Straße/Am Querweg",0,unknown
51.0188043,13.7189797,Dorfhainer Straße,-1,no
51.0188229,13.7202231,Dorfhainer Straße,-1,no
51.009862,13.7837343,Tornaer Straße,1,limited
51.013129,13.7773741,Marie-Wittich-Straße,1,limited
51.0129358,13.7770087,Marie-Wittich-Straße,1,limited
51.0387301,13.7400081,Gret-Palucca-Straße,2,yes
51.0528837,13.682085,Grillparzerstraße,1,limited
51.0529161,13.6818275,Grillparzerstraße,1,limited
51.027317,13.7599403,Wasaplatz,1,limited
51.0367937,13.752522,Zoo,2,yes
51.0824842,13.6906584,Washingtonstraße,2,yes
51.082458,13.7071062,Bunsenstraße,2,yes
51.0824554,13.7065711,Bunsenstraße,2,yes
51.0821961,13.7069442,Bunsenstraße,2,yes
51.0804717,13.7143441,Mickten,-1,no
51.0844135,13.7276741,Trachenberger Platz,1,limited
51.0850261,13.7280764,Trachenberger Platz,2,yes
51.0495064,13.760865,"Dresden, Striesener Straße",2,yes
51.0556227,13.7630742,"Dresden, Bönischplatz",-1,no
51.0789222,13.7082945,Trachauer Straße,2,yes
51.038908,13.7129625,Zwickauer Straße,2,yes
51.0390144,13.7129723,Zwickauer Straße,2,yes
51.0080948,13.8484757,Meußlitzer Straße,-1,no
51.0077477,13.8484228,Meußlitzer Straße,2,yes
51.0098589,13.8486478,Keppgrundstraße,0,unknown
51.0101324,13.8484582,Keppgrundstraße,0,unknown
51.018408,13.8426544,Schiffs- und Yachtwerft Laubegast,0,unknown
51.0195447,13.8418613,Schiffswerft Laubegast,0,unknown
51.0223418,13.8396429,Kronstädter Platz,0,unknown
51.02252,13.8391708,Kronstädter Platz,0,unknown
51.0449517,13.7772485,Mosenstraße,-1,no
51.0007813,13.6831598,Reiboldschachtring,0,unknown
51.012446,13.7000019,Tübinger Straße,0,unknown
51.0202283,13.7290765,Südhöhe,2,yes
51.0201757,13.7297784,Südhöhe,2,yes
51.0159851,13.6992382,Coschütz,2,yes
50.995796,13.8584856,Hüfnerweg,2,yes
50.9952415,13.8663784,Borsbergblick,2,yes
50.9969005,13.8557381,Johannes-Brahms-Straße,2,yes
50.997813,13.852665,Am Brüchigt,0,unknown
50.997927,13.852674,Am Brüchtigt,0,unknown
51.0021718,13.8416849,Bahnhofstraße,0,unknown
50.9981373,13.8259579,Sosaer Straße,2,yes
50.9969211,13.8274822,Professor-Billroth-Straße,0,unknown
51.0042463,13.8482653,Putjatinplatz,0,unknown
51.0380903,13.7472896,Lennéplatz,2,yes
51.0432926,13.7881173,Bergmannstraße,-1,no
51.0294339,13.7309633,Technische Universität (Fritz-Foerster-Platz),2,yes
51.0295802,13.7307619,Technische Universität (Fritz-Foerster-Platz),2,yes
51.0967691,13.9478075,Kleinwolmsdorf Gaststätte,0,unknown
51.0982717,13.9528725,"Arnsdorf-Kleinwolmsdorf, Bäckerei",0,unknown
51.0399227,13.6325868,"Gompitz, Gompitzer Höhe",2,yes
51.0819171,13.6947463,Elbepark,2,yes
51.0498061,13.7568033,St.-Benno-Gymnasium,-1,no
51.0528321,13.7618865,Gerokstraße,-1,no
51.0889792,13.7238081,Hubertusplatz,-1,no
51.0347849,13.7314194,Reichenbachstraße,2,yes
50.9338244,13.8292307,Abzweig nach Crotta,0,unknown
51.0882138,13.703596,Am Trachauer Bahnhof,1,limited
51.0853533,13.7050237,Rankestraße,2,yes
51.0275708,13.7312742,Mommsenstraße,2,yes
51.0893414,13.7049622,Haltepunkt Trachau,2,yes
51.0504027,13.6787855,Weidentalstraße,-1,no
51.0499848,13.6783275,Weidentalstraße,2,yes
51.052821,13.6732877,Gorbitzer Straße,-1,no
51.0531056,13.6723276,Gorbitzer Straße,2,yes
51.0469693,13.7915611,Wittenberger Straße,2,yes
51.0286185,13.8468877,Staffelsteinstraße,0,unknown
51.032547,13.8398979,Moosleite,0,unknown
51.031346,13.5474308,Grumbach Wendeplatz,0,unknown
51.0621836,13.8862089,"Weißig, Am Weißiger Bach",0,unknown
51.0603763,13.8612076,"Dresden, Rossendorfer Straße",0,unknown
51.0393623,13.7320785,Internationale Bushaltestelle,-1,no
51.0512925,13.8195029,Calberlastraße,0,unknown
51.0371943,13.832388,Altwachwitz,0,unknown
51.0254279,13.8514465,Gustavheim,0,unknown
51.013845,13.8640228,Pillnitz (Leonardo-da-Vinci-Straße),0,unknown
51.012319,13.8736448,Rathaus Pillnitz,0,unknown
51.0086241,13.8746635,Pillnitzer Platz,0,unknown
51.0811469,13.7196485,Wurzener Straße,0,unknown
50.9907302,13.6822003,"Kleinnaundorf, Am Segen",0,unknown
51.0397522,13.8529171,Pappritz,2,yes
51.1363714,13.7361253,Abzweig Waldteiche,0,unknown
51.0982128,13.7316159,Hellerhofstraße,2,yes
51.0999521,13.735993,Hellerberge,2,yes
51.1139028,13.7279062,Elsterweg,-1,no
51.1182538,13.7249993,Keulenbergstraße,-1,no
51.1210441,13.7212025,Reineckeweg,1,limited
51.1234501,13.7236165,Altwilschdorf,0,unknown
51.1181862,13.7059702,"Boxdorf, Ernst-Wagner-Straße",0,unknown
51.1197785,13.7003393,"Boxdorf, Bebelplatz",0,unknown
51.1286547,13.7030427,"Boxdorf, Ortsausgang",0,unknown
51.0264291,13.7559805,"Dresden, Caspar-David-Friedrich-Straße",2,yes
51.0281676,13.7589531,Wasaplatz,1,limited
51.0277284,13.7771998,Betriebshof Gruna,0,unknown
51.0298239,13.7827355,Fraunhofer-Institutszentrum,1,limited
51.1295324,13.7101714,Am Weiher,0,unknown
51.120897,13.697114,"Boxdorf, Schule",0,unknown
51.1220761,13.6984432,"Boxdorf, Feuerwehr",0,unknown
50.9586854,13.8428714,Gamig,0,unknown
50.9570136,13.8331791,Gorknitz,0,unknown
51.156915,13.7327592,Bärnsdorf Siedlung,0,unknown
51.1641303,13.7275175,"Bärnsdorf, Wendeplatz",0,unknown
51.1773829,13.7186296,"Berbisdorf, Siedlung",0,unknown
51.0845915,13.7427394,Oberauer Straße,0,unknown
51.0132811,13.7428176,Babisnauer Straße,0,unknown
51.1379393,13.7818526,"Klotzsche, Industriegebiet Nord",0,unknown
51.1556298,13.9068874,"Wachau, Leppersdorfer Straße",0,unknown
51.1625502,13.7675015,Marsdorf Mitte,0,unknown
51.1240836,13.6778758,"Reichenberg, Dreßler Ecke",0,unknown
51.1568489,13.6220101,Forsthaus Kreyern,0,unknown
51.123435,13.5791512,Bahnhof,1,limited
51.1752381,13.7028507,Fasanerie,0,unknown
51.1338861,13.6471837,Wartehalle,0,unknown
51.1366448,13.6517446,Wendeplatz,0,unknown
51.157464,13.6768424,Schule,0,unknown
51.0024202,13.6528395,Döhlen Schachtstraße,2,yes
51.0251247,13.6876465,"Dresden, Dölzschen",2,yes
50.9971843,13.6873752,Meßweg,0,unknown
50.994538,13.6906059,"Kleinnaundorf, Steigerstraße",0,unknown
51.0162771,13.7006227,"Dresden, Achtbeeteweg",2,yes
50.9872193,13.8065816,Dresden Lockwitz,0,unknown
50.9872421,13.806827,Dresden Lockwitz,0,unknown
50.9872409,13.8069936,Dresden Lockwitz,0,unknown
50.9867499,13.8028022,Dresden Am Galgenberg,-1,no
50.9867169,13.8029988,Dresden Am Galgenberg,-1,no
50.9884682,13.8027419,Hänichenweg,2,yes
50.988776,13.802618,Hänichenweg,2,yes
50.9907906,13.8023674,Theilestraße,2,yes
50.9901098,13.8024103,Theilestraße,2,yes
51.0346281,13.720749,Bernhardstraße,2,yes
51.0348078,13.7205948,Bernhardstraße,2,yes
51.0737133,13.8845591,"Ullersdorf, Mühle",0,unknown
51.1448788,13.7403403,"Volkersdorf, Kindergarten",0,unknown
51.1477428,13.7393152,"Volkersdorf, Grenzweg",0,unknown
51.1468934,13.74024,"Volkersdorf, Grenzweg",0,unknown
51.0154926,13.7547091,"Dresden, Wilhelm-Busch-Straße",-1,no
51.168451,13.7232567,"Bärnsdorf, Zur Kleinbahn",0,unknown
51.0137133,13.6957581,Gittersee Kleinnaundorfer Straße,2,yes
51.1261248,13.7883778,Maria-Reiche-Straße,2,yes
51.1261895,13.7886954,Maria-Reiche-Straße,0,unknown
51.1272967,13.7810396,Grenzstraße Mitte,2,yes
51.1246175,13.9147406,"Radeberg, Dr.-R.-Friedrichs-Straße",0,unknown
51.009735,13.6922393,Gittersee Rathausstraße,2,yes
51.0192259,13.7407819,"Zschertnitz, Münzmeisterstr",-1,no
51.1521705,13.9103558,"Wachau, Oberdorf",0,unknown
51.1543765,13.9644859,"Leppersdorf, Pulsnitzer Straße",0,unknown
51.1272758,13.9497482,"Radeberg, Randsiedlung",0,unknown
51.0050566,13.8565557,Gondelweg,0,unknown
51.0717448,13.6704196,Zschonergrundstraße,0,unknown
51.0717603,13.6704106,Zschonergrundstraße,0,unknown
51.0671146,13.6739885,Merbitzer Straße,0,unknown
51.0001363,13.9124044,"Graupa, Tiefer Grund",1,limited
50.9960006,13.9079925,"Graupa, Borsbergstraße",-1,no
51.0001301,13.9215584,"Graupa, Tschaikowskiplatz",1,limited
50.9995284,13.9238787,Am Schloß,0,unknown
51.0000464,13.9124899,"Graupa, Tiefer Grund",1,limited
50.9999338,13.9214138,"Graupa, Tschaikowskiplatz",-1,no
51.0039383,13.9297262,Bonnewitzer Straße,1,limited
51.0036845,13.92919,Bonnewitzer Straße,1,limited
51.0061761,13.9426605,Bonnewitz,-1,no
50.9957119,13.9077611,"Graupa, Borsbergstraße",-1,no
51.1179943,13.9232006,"Radeberg, Markt",-1,no
51.1184696,13.6015466,EV4,0,unknown
51.1180666,13.7302386,Saßnitzer Straße,2,yes
51.0780269,13.6903847,Gewerbegebiet Kaditz,2,yes
51.0734675,13.689935,Overbeckstraße,2,yes
51.1254411,13.8344959,"Dresden-Langebrück, Lindenhof",0,unknown
51.1363946,13.8800092,"Radeberg-Liegau, Abzweig Schönborn",1,limited
51.0031436,13.6829486,Burgk Zschiedge,0,unknown
51.0010174,13.6770768,Burgk Schule,0,unknown
50.9996121,13.6707777,Burgk Wendeplatz,0,unknown
51.0022783,13.667443,Burgk Am Dathepark,0,unknown
51.0042676,13.6642657,Burgk Windbergallee,0,unknown
51.0998518,13.6543674,Kaufland Radebeul,0,unknown
50.9782714,13.8881713,Kindergarten,0,unknown
50.9802139,13.8877215,Altbirkwitz,0,unknown
50.9800925,13.8876734,Altbirkwitz,0,unknown
51.0556986,13.7224793,Bahnhof Mitte / Jahnstraße,2,yes
51.1149067,13.7886881,"Dresden, Bahnhof Klotzsche",1,limited
51.0880551,13.7152644,Wilder-Mann-Straße,0,unknown
51.0914171,13.7115065,Kopernikusstraße,0,unknown
51.1211464,13.7844655,Selliner Straße,1,limited
51.0869371,13.7222149,Markusfriedhof,0,unknown
51.0811912,13.7255847,Haltepunkt Pieschen,1,limited
51.0873971,13.9237504,"Großerkmannsdorf, Gasthof",0,unknown
51.0340499,13.7483809,Strehlener Platz,1,limited
51.0281103,13.7074829,Coschützer Straße,0,unknown
51.1182804,13.7893638,Käthe-Kollwitz-Platz,-1,no
51.1376209,13.7824227,"Klotzsche, Industriegebiet Nord",0,unknown
51.1353971,13.7804137,Schwimmhalle Klotzsche,1,limited
51.1312526,13.785727,Ikarusweg,0,unknown
51.131094,13.7868742,Ikarusweg,0,unknown
51.1300583,13.7898867,Hugo-Junkers-Ring,0,unknown
51.0506797,13.7518454,"Dresden, Gerichtsstraße",-1,no
51.0823813,13.7016132,Wächterstraße,2,yes
51.0397689,13.8444503,Fernsehturm,0,unknown
51.0398736,13.855968,"Pappritz, Birkenstraße",0,unknown
51.0357445,13.8536703,"Pappritz, Kurze Straße",0,unknown
51.0275384,13.7315572,Mommsenstraße,2,yes
51.0737997,13.7940403,"Dresden, Fischhaus",0,unknown
51.0737087,13.7941691,"Dresden, Fischhaus",0,unknown
51.0266663,13.8656726,Rockau - Am Dorfplatz,0,unknown
51.1444591,13.549654,Fabrikstraße ►,0,unknown
51.0366745,13.7161127,Chemnitzer Straße,1,limited
51.0372248,13.7162627,Chemnitzer Straße,2,yes
51.0374332,13.7162112,Chemnitzer Straße,2,yes
51.0364151,13.717002,Chemnitzer Straße,1,limited
51.0392156,13.7185017,Agentur für Arbeit,2,yes
51.0405278,13.7197191,Agentur für Arbeit,2,yes
50.969955,13.8029065,Borthen,0,unknown
50.9699154,13.8027493,Borthen,0,unknown
51.0135037,13.7908393,Hülßestraße,-1,no
50.9971071,13.8219412,Dorfstraße,2,yes
50.9947345,13.8184215,Bedrich-Smetana-Straße,2,yes
51.0493951,13.8061747,Berggartenstraße,0,unknown
51.1336807,13.7951401,Fuchsberg,-1,no
51.0864989,13.7633391,Industriegelände,1,limited
51.0874485,13.7299705,Betriebshof Trachenberge,-1,no
51.0870071,13.7294018,Betriebshof Trachenberge,2,yes
51.0409723,13.6253959,"Pennrich, Gleisschleife",2,yes
51.0432934,13.6258886,Oskar-Maune-Straße,0,unknown
51.1690036,13.7948388,"Hufen, Käthe-Kollwitz-Straße",0,unknown
51.1767597,13.6771428,Mittelteichbad,0,unknown
51.0506486,13.5313463,"Wilsdruff, Nossener Straße",0,unknown
51.0517028,13.5377789,Wilsdruff Markt,0,unknown
50.9769901,13.5580668,Waldhäuser,-1,no
51.0447929,13.77787,Mosenstraße,-1,no
51.0457671,13.7707317,Fetscherplatz,0,unknown
51.0422713,13.7672636,Comeniusplatz,-1,no
51.0466634,13.7324446,Reitbahnstraße,1,limited
51.0464728,13.7326552,Reitbahnstraße,1,limited
51.0460052,13.7296632,Josephinenstraße,2,yes
51.0455047,13.7289032,Josephinenstraße,2,yes
51.0420828,13.721522,Schweizer Straße,2,yes
51.0414297,13.7210238,Schweizer Straße,2,yes
50.9871651,13.5783606,"Tharandt, Talmuehlenstraße",0,unknown
50.987382,13.5777353,Tharandt Talmühlenstraße,0,unknown
51.1274583,13.7813159,Grenzstraße Mitte,2,yes
51.1243127,13.7796503,Putbuser Weg,1,limited
51.1242933,13.7794464,Putbuser Weg,1,limited
51.073138,13.7660597,Marienallee,0,unknown
50.9605665,13.9375456,Robert-Koch-Straße,0,unknown
50.9607978,13.9375988,"Pirna, Robert-Koch-Straße",0,unknown
50.9602702,13.9390592,Breite Straße,0,unknown
50.9599271,13.9390409,Breite Straße,0,unknown
50.9601422,13.9390524,Breite Straße,0,unknown
50.9600187,13.9390458,Breite Straße,0,unknown
50.9604414,13.9390684,Breite Straße,0,unknown
51.0016809,13.8632848,Wostra,0,unknown
51.003177,13.8605468,Zur Elbinsel,0,unknown
51.005116,13.8561608,Gondelweg,0,unknown
51.0015081,13.863362,Wostra,0,unknown
51.0026721,13.8612905,Zur Elbinsel,0,unknown
50.9969059,13.8552918,Johannes-Brahms-Straße,2,yes
51.0733782,13.765051,Marienallee,0,unknown
51.065329,13.7418834,Bahnhof Neustadt,2,yes
51.0268425,13.7552082,Caspar-David-Friedrich-Straße,2,yes
51.088213,13.6790473,Seewiesenweg,0,unknown
51.023487,13.7430785,Räcknitzhöhe,2,yes
51.0764064,13.756025,Stauffenbergallee,0,unknown
51.0346849,13.7578486,Querallee,-1,no
51.0344971,13.7583351,Querallee,2,yes
51.0365487,13.7531401,Zoo,2,yes
51.0425092,13.7419365,Hans-Dankner-Straße,2,yes
51.0428216,13.7419427,Hans-Dankner-Straße,2,yes
51.0155781,13.7871829,Lohrmannstraße,-1,no
51.0164859,13.7878852,Lohrmannstraße,2,yes
51.076537,13.7559733,Stauffenbergallee,0,unknown
51.0127662,13.72967,Bannewitzer Straße,0,unknown
50.9410548,13.9442056,Pirna-Südvorstadt Schule,0,unknown
50.9437733,13.9434767,Pirna Geibeltbad,0,unknown
50.9560285,13.9400187,Pirna Clara-Zetkin-Straße,0,unknown
50.9523292,13.9401994,Pirna Seminarstraße,0,unknown
51.0904231,13.9197685,"Großerkmannsdorf, Hauptstraße",0,unknown
51.1106712,13.9281265,Radeberg Kleinwolmsdorfer Straße,0,unknown
51.0329321,13.6968143,"Dresden, Dölzschener Straße",2,yes
51.0327665,13.6973095,"Dresden, Dölzschener Straße",2,yes
51.0336575,13.6910837,"Dresden, Kasseler Straße",1,limited
51.0337973,13.691219,"Dresden, Kasseler Straße",1,limited
51.0340373,13.6753323,"Dresden, Neunimptscher Straße",1,limited
51.0341668,13.6752808,"Dresden, Neunimptscher Straße",2,yes
51.0361828,13.6835645,"Dresden, Saalhausener Straße",1,limited
51.0344305,13.6874481,"Dresden, Altnaußlitz",-1,no
51.0346422,13.6871409,"Dresden, Altnaußlitz",-1,no
51.0366062,13.6971334,"Dresden, Frankenbergstraße",2,yes
51.0361511,13.6973357,"Dresden, Frankenbergstraße",2,yes
51.077638,13.7520981,Rudolf-Leonhard-Straße,0,unknown
51.0774699,13.7519547,Rudolf-Leonhard-Straße,0,unknown
51.0846739,13.9291568,"Großerkmannsdorf, Linde",0,unknown
51.1050221,13.6289554,Radebeul Altkötzschenbroda,0,unknown
51.0078221,13.6577366,Döhlen Platz des Friedens,2,yes
51.0543355,13.8144144,"Dresden, Körnerplatz",2,yes
51.0540293,13.8147101,"Dresden, Körnerplatz",2,yes
51.1138858,13.9029237,"Radeberg, Steinstraße",0,unknown
51.118858,13.9183575,"Radeberg, Otto-Uhlig-Straße",-1,no
51.1602438,13.8450455,"Grünberg, Langebrücker Straße",0,unknown
51.1334802,13.8405196,"Dresden-Langebrück, Am Mühlenteich",0,unknown
51.0400785,13.6461175,Altnossener Straße,2,yes
51.1396932,13.7983074,"Dresden-Weixdorf, E.-Kluge-Straße",0,unknown
51.1401046,13.7979874,"Dresden-Weixdorf, E.-Kluge-Straße",0,unknown
51.1774457,13.8241703,"Ottendorf-Okrilla, Bhf Süd",1,limited
51.0086016,13.6932096,Gewerbegebiet Gittersee,0,unknown
50.9542297,13.9393459,Pirna Rottwerndorfer Straße,0,unknown
51.1242754,13.7656304,Dresden Flughafen,2,yes
51.0999535,13.7355726,Hellerberge,2,yes
50.9958467,13.8034748,Dresden Erich-Kästner-Straße,1,limited
50.9979893,13.8001236,"Prohlis, Einkaufszentrum",2,yes
50.9984241,13.8001473,"Prohlis, Einkaufszentrum",2,yes
51.011369,13.8073614,Haltepunkt Dobritz,2,yes
51.0107846,13.8083768,Haltepunkt Dobritz,2,yes
50.9955847,13.8032346,Dresden Erich-Kästner-Straße,1,limited
51.0387321,13.8060789,Altenberger Straße,2,yes
51.0389175,13.8060388,Altenberger Straße,2,yes
51.0357298,13.8071655,Altenberger Platz,2,yes
51.0324089,13.8050767,Hepkestraße,-1,no
51.0327673,13.8052135,Hepkestraße,-1,no
51.0296718,13.8026645,Einkaufszentrum Seidnitz,2,yes
51.029936,13.8024749,Einkaufszentrum Seidnitz,2,yes
51.0269614,13.8000056,Rennplatzstraße,2,yes
51.0270936,13.8002312,Rennplatzstraße,2,yes
51.0247668,13.7978298,Winterbergstraße,0,unknown
51.0245217,13.7978593,Winterbergstraße,0,unknown
51.0211134,13.7907159,Bahnhof Reick,2,yes
51.0211447,13.7906153,Bahnhof Reick,2,yes
51.0188949,13.7899034,Enno-Heidebroek-Straße,2,yes
51.0193382,13.7898086,Enno-Heidebroek-Straße,2,yes
51.0432979,13.8072443,Niederwaldplatz,0,unknown
51.0436453,13.807249,Niederwaldplatz,0,unknown
51.1278866,13.7774907,Bahnhof Grenzstraße,1,limited
51.1278806,13.7772828,Bahnhof Grenzstraße,-1,no
51.0613809,13.8703921,"Dresden, Taubenberg",1,limited
51.0671633,13.8669686,"Dresden, Hermann-Löns-Straße",0,unknown
51.0246581,13.7620735,Mockritzer Straße,2,yes
51.0243429,13.7624467,Mockritzer Straße,2,yes
51.0226704,13.765031,Hugo-Bürkner-Straße,-1,no
51.0196737,13.7681381,Dohnaer Straße,1,limited
51.0195166,13.7681967,Dohnaer Straße,1,limited
51.0578872,13.7241506,Weißeritzstraße,-1,no
51.0313389,13.7806939,"Dresden, Grunaer Weg",1,limited
51.0309186,13.7799579,"Dresden, Grunaer Weg",1,limited
51.0266714,13.7545938,"Dresden, Caspar-David-Friedrich-Straße",2,yes
51.0266771,13.7550253,Caspar-David-Friedrich-Straße,2,yes
51.0216313,13.7638377,Corinthstraße,2,yes
51.0210195,13.7649705,Corinthstraße,2,yes
51.0387577,13.6365797,Rudolf-Walther-Straße,2,yes
51.0957675,13.6592718,Altserkowitz,0,unknown
50.9672183,13.8083001,Röhrsdorf,0,unknown
50.989591,13.8110241,Dresden Altlockwitz,1,limited
50.9898054,13.8111399,Dresden Altlockwitz,1,limited
50.9923744,13.8070924,Dresden Urnenstraße,-1,no
50.994806,13.797863,Michaelisstraße,0,unknown
50.9949081,13.7979764,Michaelisstraße,0,unknown
50.9927046,13.7980975,Nickerner Weg,-1,no
50.9927909,13.79851,Nickerner Weg,-1,no
50.9905121,13.7950608,Helena-Rott-Straße,1,limited
50.9902768,13.7949795,Helena-Rott-Straße,1,limited
51.0198275,13.8114216,Lassallestraße,1,limited
51.0198874,13.812887,Lassallestraße,1,limited
51.0186867,13.8107059,Altdobritz,0,unknown
51.0187932,13.8106233,Altdobritz,0,unknown
51.0370595,13.8076808,Schaufußstraße,-1,no
51.0368741,13.8085305,Schaufußstraße,-1,no
51.0354306,13.8119597,Berggießhübler Straße,-1,no
51.0339894,13.8160706,Lengefelder Straße,0,unknown
51.0335605,13.8168448,Lengefelder Straße,0,unknown
51.0320488,13.8213272,Kipsdorfer Straße,0,unknown
51.0317851,13.8212766,Kipsdorfer Straße,0,unknown
51.0284793,13.812204,Knappestraße,0,unknown
51.0287547,13.8134663,Knappestraße,0,unknown
51.031148,13.8180877,Wilischstraße,0,unknown
51.030961,13.8178193,Wilischstraße,0,unknown
51.0252901,13.8052569,Marienberger Straße,2,yes
51.0258646,13.8055835,Marienberger Straße,-1,no
51.0224247,13.8039384,Bergfelderweg,0,unknown
51.0223749,13.8041226,Bergfelderweg,0,unknown
51.027713,13.80837,Liebenauer Straße,0,unknown
51.027847,13.8088306,Liebenauer Straße,0,unknown
50.9920736,13.8069359,Dresden Urnenstraße,1,limited
50.989734,13.8115694,Dresden Altlockwitz,-1,no
50.9897303,13.8114214,Dresden Altlockwitz,-1,no
50.9980499,13.79943,"Prohlis, Einkaufszentrum",2,yes
51.0338575,13.7123122,"Dresden, Bamberger Straße",2,yes
51.0342559,13.7125544,"Dresden, Bamberger Straße",1,limited
51.0093373,13.7838249,Tornaer Straße,1,limited
51.0153963,13.7716771,Spitzwegstraße,1,limited
51.0156362,13.7718585,Spitzwegstraße,1,limited
51.0124191,13.7916167,Hülßestraße,-1,no
51.034441,13.703582,"Dresden, Würzburger Straße",1,limited
51.034991,13.703705,"Dresden, Würzburger Straße",1,limited
50.9384392,13.9660491,Kleinebenheit,0,unknown
51.0110117,13.8199885,Mockethaler Straße,1,limited
51.0111458,13.821371,Mockethaler Straße,1,limited
51.0426734,13.8779665,"Cunnersdorf, Gasthof",0,unknown
51.091695,13.687465,Seestraße,0,unknown
50.9979243,13.8671127,Freibad Wostra,2,yes
51.133385,13.5823879,Salzstraße,0,unknown
51.1363603,13.5852915,Genossenschaftsstraße,0,unknown
51.1393313,13.5915336,"Coswig, Siedlerstraße",2,yes
51.1455474,13.6083207,Spitzgrund Rotes Bächel,0,unknown
51.1756324,13.6202234,"Neuer Anbau, Zum Heidehof",-1,no
51.1110409,13.6998227,"Boxdorf, Baumwiese",0,unknown
51.1237308,13.7913658,Arkonastraße,2,yes
51.1223866,13.7910291,Arkonastraße,2,yes
51.0980447,13.6772015,Bf/Gartenstraße,0,unknown
51.0929271,13.6678177,"Kaditz, Am Vorwerksfeld",0,unknown
50.9334529,13.9481204,Pirna Franz-Schubert-Straße,0,unknown
50.9370716,13.9458316,Pirna Albrecht-Dürer-Straße,0,unknown
51.0449847,13.7991678,Dornblüthstraße,2,yes
51.0894006,13.6948479,Dungerstraße,0,unknown
51.0993768,13.679919,"Radebeul-Ost, Bahnhof",0,unknown
50.9619572,13.9295917,"Pirna, ZOB / Bahnhof",0,unknown
51.0934826,13.6833991,Barthübelstraße,0,unknown
51.0977715,13.6536781,Kötzschenbrodaer Straße,0,unknown
51.1401526,13.6608593,"Dippelsdorf, Großenhainer Straße",0,unknown
51.1002688,13.6774008,Pestalozzistraße,0,unknown
51.0885255,13.7029582,Am Trachauer Bahnhof,-1,no
51.1179927,13.7673741,Ahlbecker Straße,0,unknown
51.1180778,13.7675743,Ahlbecker Straße,0,unknown
51.1165092,13.7696036,Dörnichtweg,2,yes
51.1161603,13.7704779,Dörnichtweg,2,yes
51.1136921,13.7731943,Grüner Weg,2,yes
51.1137262,13.7733807,Grüner Weg,2,yes
51.1114519,13.7745867,Rathaus Klotzsche,2,yes
51.1114933,13.774778,Rathaus Klotzsche,2,yes
51.1262528,13.7313363,Wilschdorfer Landstraße,0,unknown
51.0609865,13.689976,Flügelweg,2,yes
51.0611884,13.6903771,Flügelweg,2,yes
51.0528648,13.6603546,Altomsewitz,-1,no
51.0535727,13.6634653,Altburgstädtel,-1,no
51.0745236,13.6984404,Rethelstraße,0,unknown
51.0747052,13.698725,Rethelstraße,0,unknown
51.0874494,13.7190177,Boxdorfer Straße,0,unknown
51.059899,13.718147,Krankenhaus Friedrichstadt,2,yes
51.097512,13.6740785,Serkowitzer Straße,0,unknown
51.0970325,13.667244,Friedhofstraße,0,unknown
51.0084286,13.7686037,Kauschaer Straße,2,yes
51.0077144,13.7680339,Kauschaer Straße,2,yes
51.014511,13.8480524,Eichbergstraße,0,unknown
51.0152913,13.848346,Eichbergstraße,-1,no
51.0246702,13.8375573,Leubener Straße,2,yes
51.0106408,13.8239736,Rathaus Leuben,2,yes
51.0103574,13.8251002,Rathaus Leuben,-1,no
51.0359935,13.7872963,"Dresden, Schneebergstraße",2,yes
51.0242613,13.7968942,Winterbergstraße,0,unknown
51.0245411,13.7966455,Winterbergstraße,0,unknown
51.0266516,13.791204,"Dresden, Nätherstraße",2,yes
51.0943436,13.7190662,Platanenstraße,2,yes
51.0954833,13.7120837,Aachener Straße,0,unknown
51.0941896,13.7117233,Aachener Straße,0,unknown
51.0530931,13.65857,Omsewitz,-1,no
51.0523589,13.6596402,Adalbert-Stifter-Weg,-1,no
51.0539554,13.6659214,Lise-Meitner-Straße,-1,no
51.0538541,13.6674248,Lise-Meitner-Straße,-1,no
51.0160077,13.7557867,"Dresden, Wilhelm-Busch-Straße",1,limited
51.0153325,13.7682003,Altleubnitz,0,unknown
51.0162216,13.7682309,Altleubnitz,2,yes
51.0138676,13.7686704,Karl-Laux-Straße,0,unknown
51.0139118,13.7688686,Karl-Laux-Straße,0,unknown
51.0123668,13.7988749,Seidnitzer Weg,2,yes
51.0124353,13.7988891,Seidnitzer Weg,2,yes
51.012923,13.7956273,Altreick,-1,no
51.0129942,13.7953304,Altreick,-1,no
51.010181,13.815001,Niederseidewitzer Weg,0,unknown
51.0100994,13.814595,Niederseidewitzer Weg,0,unknown
50.9329166,13.9142485,Zuschendorf Landschloß,0,unknown
50.9344793,13.9173873,Gärtnerei,0,unknown
50.9516271,13.9356025,Pirna Landratsamt,2,yes
50.9499403,13.9341479,Pirna Zehistaer- / Kohlbergstraße,0,unknown
50.9453171,13.9298695,Pirna Lindigt,0,unknown
50.9428127,13.9280012,Pirna An der Seidewitz,0,unknown
50.9513095,13.9311803,Kohlbergstraße,0,unknown
50.9523801,13.9278587,Postweg,0,unknown
50.955003,13.9275992,Aufbauring / Friedhof,0,unknown
50.938167,13.9246121,Zehista Hotel zur Post,0,unknown
50.9368551,13.9209201,Zehista Schule,0,unknown
50.9326635,13.9130142,Landschloss Zuschendorf,0,unknown
50.934475,13.91739,Zuschendorf Gärtnerei,0,unknown
50.9372683,13.9212625,Zehista Schule,0,unknown
50.9388497,13.925018,Zehista Hotel zur Post,0,unknown
50.9424884,13.9275905,Pirna An der Seidewitz,0,unknown
50.9453042,13.9295712,Pirna Lindigt,0,unknown
50.9497779,13.9339142,Pirna Zehistaer- / Kohlbergstraße,0,unknown
51.041117,13.7799238,"Dresden, Mansfelder Straße",1,limited
51.0717959,13.7697632,Landesdirektion Sachsen,0,unknown
51.0715823,13.7707098,Landesdirektion Sachsen,0,unknown
50.9694674,13.9217139,Copitz_West,0,unknown
50.971046,13.9318761,Herderstraße,0,unknown
50.9746065,13.9309314,Rudolf-Renner-Straße,0,unknown
50.9865122,13.9351205,W.-Hultsch-Heim,0,unknown
50.9891226,13.9360056,Abzweig Jessen,0,unknown
50.9903431,13.9443981,Jessen Gasthaus,0,unknown
50.9963069,13.9572047,Liebethaler Grund,0,unknown
50.9685111,13.9345517,"Pirna Copitz, Schulstraße",0,unknown
50.9692566,13.929164,Eichendorffstraße,0,unknown
50.998832,13.7202741,"Bannewitz, Boderitzer Straße",0,unknown
50.9982965,13.7199185,"Bannewitz, Boderitzer Straße",0,unknown
51.0888408,13.7313367,Maxim-Gorki-Straße,-1,no
51.0020336,13.7936041,Fritz-Meinhardt-Straße,1,limited
51.0013814,13.7939703,Nickern Fritz-Meinhardt-Straße,1,limited
51.0057418,13.7876788,Gamigstraße,1,limited
51.0055632,13.7885509,Gamigstraße,1,limited
51.085214,13.7281929,Trachenberger Platz,1,limited
51.0389399,13.6378227,Rudolf-Walther-Straße,2,yes
51.0403923,13.6322819,"Gompitz, Gompitzer Höhe",2,yes
51.0394972,13.6330181,"Gompitz, Gompitzer Höhe",2,yes
50.9670771,13.9379151,Hauptplatz,0,unknown
50.967181,13.9376433,Hauptplatz,0,unknown
50.959456,13.8936238,Pechhütte,0,unknown
50.9611601,13.8905751,Pechhütte,0,unknown
50.9575846,13.9280553,Dresdner Straße,0,unknown
50.9577401,13.9279788,Dresdner Straße,0,unknown
50.9648266,13.8821534,Fritz-Gumpert-Platz,0,unknown
50.9694232,13.8743145,Reifenwerk,0,unknown
50.9691303,13.8750569,Reifenwerk,0,unknown
50.972087,13.8645643,Gabelsbergerstraße,0,unknown
50.9720857,13.8650457,Gabelsbergerstraße,0,unknown
50.9815068,13.8452643,Ausspanne,0,unknown
50.9813872,13.8455244,Ausspanne,0,unknown
50.9837298,13.836682,Lugaer Platz,0,unknown
50.9838212,13.8349544,Lugaer Platz,0,unknown
50.9858306,13.8286191,Krebser Straße,0,unknown
50.985415,13.8321144,Luga,0,unknown
50.9856599,13.8319431,Luga,0,unknown
50.9951777,13.8261753,Niedersedlitzer Platz,0,unknown
50.9934361,13.826383,Veilchenstraße,0,unknown
50.9929171,13.8264258,Veilchenstraße,0,unknown
50.995627,13.826091,Niedersedlitzer Platz,0,unknown
51.0358918,13.8112391,Berggießhübler Straße,-1,no
51.0877229,13.736341,Sankt-Pauli-Friedhof,-1,no
51.0844464,13.7428783,Oberauer Straße,0,unknown
51.0815247,13.745419,Bärwalder Straße,0,unknown
51.0791398,13.7470483,Buchenstraße,0,unknown
51.0786804,13.7472999,Buchenstraße,0,unknown
51.077459,13.750327,Schanzenstraße,0,unknown
51.0588409,13.6488974,Am Steinigt,0,unknown
51.0587199,13.6488577,Am Steinigt,0,unknown
51.0563074,13.6479739,Am Querfeld,0,unknown
51.0562384,13.6471692,Am Querfeld,0,unknown
51.0555874,13.6430836,Ockerwitz,0,unknown
51.0583403,13.656651,Freiheit,2,yes
51.166775,13.6871906,Abzweig Waldschänke,0,unknown
51.1670147,13.6874439,Abzweig Waldschänke,0,unknown
51.0417684,13.641852,Schule Gompitz,0,unknown
51.0418949,13.6418846,Schule Gompitz,0,unknown
51.04304,13.6357992,Hohlweg,0,unknown
51.0397741,13.6324162,"Gompitz, Gompitzer Höhe",2,yes
51.0582799,13.6564882,Freiheit,2,yes
51.0537003,13.6642447,Altburgstädtel,-1,no
51.1136099,13.956139,"Arnsdorf-Wallroda, Ort",0,unknown
51.0065755,13.8529166,Kurhausstraße,0,unknown
51.0063729,13.8533394,Kurhausstraße,0,unknown
51.0333139,13.6706133,"Dresden, Beerenhut",2,yes
51.0334437,13.6704307,"Dresden, Beerenhut",2,yes
51.0307587,13.6630064,"Pesterwitz, Mittelweg",2,yes
51.0308203,13.662761,"Pesterwitz, Mittelweg",2,yes
51.0281144,13.6553502,"Pesterwitz, Wurgwitzer Straße",-1,no
51.0365112,13.6336342,"Compitz, Kohlsdorfer Landstraße",2,yes
51.0373197,13.633122,"Compitz, Kohlsdorfer Landstraße",2,yes
51.0292578,13.6489776,"Pesterwitz, Obere Straße",1,limited
51.0293629,13.6491042,"Pesterwitz, Obere Straße",1,limited
51.0275923,13.6537514,Dorfplatz Pesterwitz,0,unknown
51.0287194,13.6530815,Pesterwitz,1,limited
51.0335657,13.6441362,Altfranken,2,yes
51.0332929,13.642736,Altfranken,2,yes
51.0320531,13.6371168,"Altfranken, Hohe Straße",2,yes
51.0318823,13.6370714,"Altfranken, Hohe Straße",2,yes
51.0613886,13.7213035,Eissporthalle,0,unknown
51.0619011,13.7205936,Eissporthalle,0,unknown
51.0591488,13.7251083,Heinz-Steyer-Stadion,0,unknown
51.0595811,13.7244612,Heinz-Steyer-Stadion,0,unknown
51.0637173,13.8215049,Plattleite,-1,no
50.9847155,13.8592784,Käthe-Kollwitz-Straße,0,unknown
50.9930768,13.8645711,Tronitzer Straße,0,unknown
50.995415,13.8588795,Hüfnerweg,0,unknown
51.0310989,13.7612691,"Dresden, Haltepunkt Strehlen",1,limited
51.0305078,13.7605927,"Dresden, Hp Strehlen",-1,no
50.972608,13.6791028,Obernaundorf Wendeplatz,-1,no
50.9979756,13.7906928,Schulbus,2,yes
50.996,13.7889995,"Nickern, Altnickern",0,unknown
50.9962072,13.7891884,Nickern/Altnickern,0,unknown
50.9899054,13.7630579,"Goppeln, Leubnitzer Straße",0,unknown
50.9889699,13.7580769,Goppeln Dorfstraße,0,unknown
50.9798836,13.7215211,Hänichen Wilischblick,0,unknown
50.9799431,13.7213303,Hänichen Wilischblick,0,unknown
50.9550787,13.7005811,Possendorf Rundteil,2,yes
50.9556192,13.7006624,Possendorf Rundteil,2,yes
50.9441652,13.7012574,"Karsdorf, B170",0,unknown
51.1645928,13.907006,"Wachau, Niederdorf",0,unknown
50.9572753,13.9542351,Klinikum Pirna,2,yes
50.956733,13.9573185,Abzweig Pirna Cunnersdorf,2,yes
50.9567159,13.9446516,Pirna Hohe Straße,0,unknown
50.9726064,13.8745039,Haltepunkt Süd,2,yes
50.9726707,13.8745761,Haltepunkt Süd,0,unknown
50.9588294,13.8827795,Pechhüttenstraße,0,unknown
50.9587001,13.8824389,Pechhüttenstraße,0,unknown
50.9559872,13.8837199,Großsedlitz Schule,0,unknown
50.9552586,13.8842467,Großsedlitz Schule,0,unknown
50.950629,13.8846297,Großsedlitz Neubauernweg,0,unknown
50.9522836,13.8873505,Barockgarten Großsedlitz,0,unknown
51.0566138,13.7674365,Pfeifferhannsstraße,-1,no
51.0355919,13.8074381,Altenberger Platz,2,yes
51.037908,13.6974277,"Dresden, Clara-Zetkin-Straße",2,yes
51.0380724,13.6987443,"Dresden, Clara-Zetkin-Straße",2,yes
51.0389911,13.7016589,"Dresden, Bonhoefferplatz",2,yes
51.0389877,13.7015621,"Dresden, Bonhoefferplatz",2,yes
51.0420852,13.701153,"Dresden, Schillingstraße",2,yes
51.0414171,13.70131,"Dresden, Schillingstraße",2,yes
51.0691128,13.6893238,Werftstraße,2,yes
50.9496452,13.858664,Dohna Altenberger Straße,0,unknown
50.9496508,13.8587883,Dohna Altenberger Straße,0,unknown
50.9444753,13.8645342,Köttewitz Haltepunkt,0,unknown
50.9445918,13.8647018,Köttewitz Haltepunkt,0,unknown
50.9390326,13.8603107,Weesenstein Abzw. nach Maxen,0,unknown
50.9390717,13.8600396,Weesenstein Abzw. nach Maxen,0,unknown
50.9342703,13.8628309,Weesenstein Gemeindeamt,0,unknown
50.9344827,13.8625875,Weesenstein Gemeindeamt,0,unknown
50.9536819,13.8530992,Schlossmühle,0,unknown
50.9548984,13.853464,Schloßmühle,0,unknown
50.9612864,13.8559236,Dohna Bahnhof,0,unknown
50.9804116,13.85631,Breitscheidstraße,0,unknown
51.1335335,13.5985497,Coswig Bergstraße,0,unknown
51.029966,13.7031484,"Dresden, Haltepunkt Plauen",2,yes
51.0300093,13.7031935,"Dresden, Haltepunkt Plauen",2,yes
51.0295626,13.7066366,"Plauen, Rathaus",2,yes
51.02936,13.7067802,"Plauen, Rathaus",2,yes
51.0296336,13.7075302,"Dresden, Plauen Rathaus",2,yes
51.0298807,13.7078916,"Dresden, Plauen Rathaus",2,yes
50.9557051,13.9489361,Sonnenstein Hochhaus,0,unknown
50.9563163,13.9491153,Sonnenstein Hochhaus,0,unknown
51.0365444,13.8655906,Helfenberg,0,unknown
51.0331875,13.8747547,Eichbusch,0,unknown
51.090941,13.9177481,"Großerkmannsdorf, Ullersdorfer Straße",0,unknown
51.0015791,13.8029439,Dresden Ernst-Toller-Straße,1,limited
51.0014138,13.8025021,Dresden Ernst-Toller-Straße,-1,no
50.999263,13.7992278,"Prohlis, Gleisschleife",2,yes
50.9998444,13.8000834,"Prohlis, Bad",1,limited
51.0127603,13.8692724,"Dresden, Bodemerweg",1,limited
51.0125408,13.8701001,"Dresden, Bodemerweg",1,limited
50.9831525,13.5853514,"Tharandt, Dresdner Straße",0,unknown
50.9830814,13.5859295,"Tharandt, Dresdner Straße",0,unknown
51.0149256,13.6665898,Freital Fichtestraße,0,unknown
51.0175144,13.6736345,Dresden Gitterseebrücke,0,unknown
51.0177925,13.6755339,Dresden Gitterseebrücke,0,unknown
51.0209259,13.6817739,Dresden Heidenschanze,0,unknown
51.02127,13.6844693,Dresden Heidenschanze,0,unknown
51.0225774,13.6922361,Dresden Begerburg,0,unknown
51.0224798,13.6973235,Dresden Felsenkeller,0,unknown
51.0322507,13.7261778,Nürnberger Platz,1,limited
51.0322751,13.7263159,Nürnberger Platz,1,limited
51.0282763,13.7590198,Wasaplatz,1,limited
51.027436,13.7598349,Wasaplatz,1,limited
51.0304261,13.7717616,"Dresden, Tiergartenstraße",1,limited
51.0303972,13.7718942,"Dresden, Tiergartenstraße",1,limited
51.0375079,13.7906043,"Dresden, Schlüterstraße",1,limited
51.0380924,13.7913425,"Dresden, Schlüterstraße",2,yes
51.0365006,13.7898041,"Dresden, Schneebergstraße",2,yes
51.0425174,13.7951128,Pohlandplatz,1,limited
51.043219,13.7957908,Pohlandplatz,2,yes
51.0475744,13.8028891,"Dresden, Niederwaldstraße",1,limited
51.0472806,13.80287,"Dresden, Niederwaldstraße",1,limited
51.0501462,13.7974911,"Dresden, Jacobistraße",2,yes
51.0502264,13.7983762,"Dresden, Jacobistraße",2,yes
51.1227122,13.6391447,Radebeul Sportplatz,0,unknown
51.0959311,13.9633083,"Arnsdorf-Kleinwolmsdorf, Hofehäuser",0,unknown
50.9825756,13.9538874,"Pirna Zatzschke, Weiße Taube",0,unknown
51.1189506,13.7896825,Käthe-Kollwitz-Platz,-1,no
51.0148888,13.6363072,Freital Zauckerode Ambulatorium,0,unknown
51.1663746,13.8389455,"Grünberg, Siedlung",0,unknown
51.1664118,13.8390613,"Grünberg, Siedlung",0,unknown
51.0035365,13.7275978,"Nöthnitz, Am Schloss",0,unknown
51.0046639,13.7286508,Bannewitz/Nöthnitz,0,unknown
51.0040877,13.7272046,Bannewitz/Nöthnitz,0,unknown
51.0584584,13.777502,Pfotenhauerstraße,2,yes
51.068989,13.786978,Böhmertstraße,0,unknown
51.0688029,13.7868082,Böhmertstraße,0,unknown
51.066904,13.7846007,Angelikastraße,2,yes
51.0670491,13.7829169,Angelikastraße,0,unknown
51.1259707,13.5754808,"Coswig, Feuerwehrstraße",2,yes
51.12611,13.7003833,"Boxdorf, Querweg",0,unknown
51.126706,13.7009268,"Boxdorf, Querweg",0,unknown
51.1749458,13.9624192,"Lichtenberg, Mitte",0,unknown
51.1073423,13.6286199,S-Bf. Kötschenbroda,-1,no
51.1164459,13.7790814,Zinnowitzer Straße,1,limited
51.1190165,13.7686835,Ahlbecker Straße,0,unknown
51.0194709,13.640815,Abzweig nach Pesterwitz,0,unknown
51.0194615,13.6408971,Abzweig nach Pesterwitz,0,unknown
50.9564517,13.9578621,Abzweig Pirna Cunnersdorf,2,yes
50.9917097,13.6432347,Freital Bürgerstraße,2,yes
50.9946706,13.6458919,Freital Wehrstraße,0,unknown
50.9986663,13.6482878,Deuben Busbahnhof,2,yes
50.9988229,13.6480389,Deuben Busbahnhof,2,yes
50.9990334,13.6479577,Deuben Busbahnhof,2,yes
50.9991571,13.6480502,Deuben Busbahnhof,2,yes
50.9988067,13.6484337,Deuben Busbahnhof,2,yes
50.999147,13.6484509,Deuben Busbahnhof,2,yes
50.9989741,13.6479874,Deuben Busbahnhof,2,yes
50.9989937,13.6481242,Deuben Busbahnhof,2,yes
51.0002705,13.6504851,Deuben Neumarkt,0,unknown
51.0004994,13.6505248,Deuben Neumarkt,0,unknown
51.0025186,13.6533624,Döhlen Schachtstraße,2,yes
51.0261065,13.629347,Zöllmener Straße,0,unknown
51.0240311,13.6219669,Schafberg,0,unknown
51.0223942,13.633959,Gustav-Klimpel-Straße,0,unknown
51.0204286,13.6219607,Wurgwitz Schule,0,unknown
51.0218575,13.6144447,Freital Wurgwitz Oberstraße,0,unknown
51.022314,13.6156262,Freital Wurgwitz Unterstraße,0,unknown
51.0220392,13.603005,Freital Wurgwitz Braunsdorfer Straße,0,unknown
50.98125,13.630322,Freital Rabenauer Straße,0,unknown
51.0061678,13.9567915,Bonnewitzer Berg,0,unknown
51.1505379,13.9580779,"Leppersdorf, Kirche",0,unknown
50.9564413,13.77592,Gombsen,0,unknown
51.0162651,13.7292355,Innsbrucker Straße,0,unknown
51.0346915,13.7312113,Reichenbachstraße,2,yes
50.9745911,13.7840459,Sobrigau Fußweg nach Sobrigau,0,unknown
50.9749424,13.7850844,Sobrigau Fußweg nach Sobrigau,0,unknown
50.9775094,13.7878224,Sobrigau Sechserhaus,0,unknown
50.9776283,13.7879512,Sobrigau Sechserhaus,0,unknown
51.124892,13.9335717,"Radeberg, Weg zum Krankenhaus",0,unknown
50.9669415,13.7779571,Sobrigau Hummelmühle,0,unknown
50.9672658,13.7779228,Sobrigau Hummelmühle,0,unknown
51.0336523,13.605669,Kesselsdorf Am Wüsteberg,0,unknown
51.0335283,13.6056797,Kesselsdorf Am Wüsteberg,0,unknown
51.0349122,13.5998596,Kesselsdorf Steinbacher Weg,0,unknown
51.0348652,13.6001124,Kesselsdorf Steinbacher Weg,0,unknown
51.0362567,13.5876238,Kesselsdorf Unkersdorfer Straße,0,unknown
51.0362803,13.5879893,Kesselsdorf Unkersdorfer Straße,0,unknown
51.0317833,13.5969936,Kesselsdorf Freitaler Straße,0,unknown
51.0318622,13.5960689,Kesselsdorf Freitaler Straße,0,unknown
51.0798956,13.8968802,"Ullersdorf, Langebrücker Straße",0,unknown
51.0720965,13.8780757,"Dresden, Schneise 8",0,unknown
51.0794288,13.9274795,Kleinerkmannsdorf,0,unknown
51.0943762,13.8411829,"Dresdner Heide, Heidemühle",0,unknown
51.0135796,13.6706757,Birkigt Gitterseer Straße,0,unknown
51.013531,13.6703324,Birkigt Gitterseer Straße,0,unknown
51.1047875,13.6368523,Radebeul Hainstraße,0,unknown
51.0654961,13.7254191,Sportplätze,0,unknown
50.9766651,13.8613468,August-Bebel-Straße,0,unknown
50.9757733,13.8613719,August-Bebel-Straße,0,unknown
50.9807346,13.8605105,Bahnhof Heidenau,2,yes
50.9864025,13.8596302,Dresdner Straße,0,unknown
50.9849356,13.8593867,Käthe-Kollwitz-Straße,0,unknown
50.9626373,13.8657091,Am Kronenhügel,0,unknown
51.0571335,13.7695143,"Dresden, Gutenbergstraße",1,limited
51.0572777,13.7707883,"Dresden, Gutenbergstraße",1,limited
51.0532329,13.7777892,Blasewitzer Straße / Fetscherstraße,-1,no
51.0554473,13.7777215,Tatzberg,-1,no
51.0555488,13.7776606,Tatzberg,-1,no
51.0384869,13.7050615,"Dresden, Clara-Viebig-Straße",1,limited
51.0377898,13.7052244,"Dresden, Clara-Viebig-Straße",1,limited
51.0767243,13.7456296,Schulbus,0,unknown
51.0361947,13.7885799,Schneebergstraße,1,limited
51.0400632,13.7886704,Hepkeplatz,1,limited
50.9735252,13.7069658,Possendorf Oberpoisen,0,unknown
50.973516,13.7068014,Possendorf Oberpoisen,0,unknown
50.9786285,13.7050213,Possendorf Poisental Abzweig Hänichen,0,unknown
50.978415,13.7050467,Possendorf Poisental Abzweig Hänichen,0,unknown
51.0397665,13.7883527,Hepkeplatz,1,limited
51.1591015,13.9039578,"Wachau, Schloss",0,unknown
51.1597844,13.9035398,"Wachau, Schloss",-1,no
51.0334134,13.8511877,"Pappritz, Stallberg",0,unknown
51.0451278,13.8646344,Zachengrundring,0,unknown
50.9930552,13.8647771,Tronitzer Straße,0,unknown
51.1451233,13.5484214,Fabrikstraße ◄,0,unknown
51.1466345,13.5456003,Neusörnewitz Köhlerstraße,0,unknown
50.9636874,13.6416881,Rabenau Markt,0,unknown
51.1659583,13.6753013,"Moritzburg, Kalkreuther Straße",-1,no
51.0172681,13.7609892,"Dresden, Clausen-Dahl-Straße",2,yes
50.9553714,13.9267782,Pirna Am Friedhof,0,unknown
51.1268391,13.7860685,"Klotzsche, Maria-Reiche-Straße",2,yes
51.1268516,13.7864584,"Klotzsche, Maria-Reiche-Straße",2,yes
51.0375666,13.7787181,Karcherallee,-1,no
51.0374048,13.778834,Karcherallee,-1,no
51.0435525,13.781207,"Dresden, Spenerstraße",1,limited
51.0435487,13.7815819,"Dresden, Spenerstraße",1,limited
51.0009893,13.838456,Schönaer Straße,0,unknown
50.9993607,13.845911,Am Wiesenrand,0,unknown
51.0082393,13.8342821,Kastanienstraße,-1,no
51.0098093,13.8313764,Berthold-Haupt-Straße,2,yes
51.0510591,13.8080821,Kretschmerstraße,0,unknown
51.0712071,13.6949614,Thäterstraße,0,unknown
51.0726513,13.6952424,Kaditzer Straße,0,unknown
51.0694558,13.6942983,Mengsstraße,0,unknown
51.0694693,13.6899853,Werftstraße,0,unknown
51.0739658,13.6939228,Scharfenberger Straße,0,unknown
50.9763479,13.6242428,Freital Bf Coßmannsdorf,2,yes
50.9744805,13.6218275,Freital Weißeritzpark,2,yes
50.9850306,13.6355434,Freital Turnergäßchen,0,unknown
50.9880298,13.6388106,Freital Bf Hainsberg,2,yes
50.9819141,13.6208828,Bahnhof Hainsberg West,-1,no
51.015989,13.656191,Burgwartstraße,0,unknown
51.0227532,13.6246197,Wurgwitz Edelsteinschleiferei,0,unknown
51.0154664,13.6617355,Oberpersterwitzer Straße,0,unknown
51.0158684,13.6502116,Burgwartschänke,0,unknown
51.0157235,13.6503647,Burwartschänke,0,unknown
51.0160376,13.6560131,Burgwartstraße,0,unknown
50.9909895,13.6429212,Freital Bürgerstraße,2,yes
50.98838,13.6392488,Freital Bf Hainsberg,2,yes
50.9851876,13.6354388,Freital Turnergäßchen,0,unknown
51.0126056,13.6508613,Freital Potschappel Friedhof,0,unknown
50.9943857,13.6456205,Freital Wehrstraße,0,unknown
50.9931837,13.6469187,Wehrstraße Schule,0,unknown
51.0176205,13.6401414,Freital Saalhausener Straße,0,unknown
51.0179937,13.639392,Freital Saalhausener Straße,0,unknown
51.0138754,13.6468433,Freital Wilsdruffer Straße,2,yes
51.0142829,13.6458791,Freital Wilsdruffer Straße,2,yes
51.0125288,13.650872,Freital Potschappel Friedhof,0,unknown
51.02216,13.6265352,Wurgwitz Edelsteinschleiferei,0,unknown
51.0186205,13.6385479,Freital Saalhausener Straße,0,unknown
51.0650162,13.8846248,"Weißig, Zum Heiderand",-1,no
51.065696,13.8865789,"Weißig, Radeberger Straße Süd",-1,no
51.0564906,13.8883161,"Weißig, Südstraße",1,limited
51.0529214,13.7782023,Blasewitzer Straße / Fetscherstraße,-1,no
51.0535137,13.7814926,Augsburger Straße,0,unknown
51.0564902,13.7811471,Universitätsklinikum,2,yes
51.0590082,13.7815612,"Dresden, Johannstadt",-1,no
51.0294417,13.6870062,"Dresden, Alfred-Thiele-Straße",-1,no
51.0317228,13.6857362,Rüdesheimer Straße,0,unknown
51.0352887,13.6841817,"Dresden, Kölner Straße",1,limited
51.0319782,13.70188,Dresden Fritz-Schulze-Straße,2,yes
51.0346572,13.7019994,"Löbtau Süd, Mohorner Straße",1,limited
51.0583326,13.775499,Neubertstraße,2,yes
51.058787,13.7780349,Pfotenhauerstraße,2,yes
51.0218795,13.7598266,Leiblstraße,0,unknown
51.0194671,13.7581978,"Dresden, Zschertnitzer Straße",2,yes
51.0837423,13.6870354,Riegelplatz,2,yes
51.0698846,13.7751531,Waldschlößchenstraße,0,unknown
51.0675523,13.7776172,Waldschlößchen,2,yes
51.0396033,13.7335846,Hauptbahnhof,2,yes
51.0400411,13.7343549,Hauptbahnhof,2,yes
51.0157212,13.7567482,Wilhelm-Busch-Straße Ost,-1,no
51.0188507,13.7575071,"Dresden, Zschertnitzer Straße",-1,no
51.0185571,13.7586007,Mockritz,0,unknown
51.0400684,13.6660536,Kapellenweg,2,yes
51.0403097,13.6727975,Wölfnitzer Ring,0,unknown
51.0453553,13.6799515,Dahlienweg,-1,no
51.048059,13.6804137,Coventrystraße,-1,no
51.0583336,13.6841993,Ockerwitzer Straße,0,unknown
51.1178532,13.7299403,Saßnitzer Straße,1,limited
51.1156793,13.74601,Brunnenweg,2,yes
51.1161207,13.752178,Am Festspielhaus,-1,no
51.1179675,13.761088,Am Steinacker,1,limited
51.1178593,13.7742355,Karlshagener Weg,1,limited
51.1281021,13.7929398,Industriepark Klotzsche,-1,no
51.1387768,13.7823872,"Klotzsche, Industriegebiet Nord",0,unknown
51.0180384,13.7061429,Cunnersdorfer Straße,1,limited
51.1572604,13.8884217,Seifersdorf Brauereiweg,0,unknown
51.1246654,13.7436027,Rähnitzer Allee,0,unknown
51.1249667,13.7427259,Rähnitzer Allee,0,unknown
51.1270612,13.772166,Flugzeugwerke,2,yes
51.1226603,13.7849631,Fontane-Center,1,limited
51.1303069,13.7043992,"Boxdorf, An der Triebe",0,unknown
51.0523918,13.6776086,Arthur-Weineck-Straße,-1,no
51.0929662,13.7202061,Dorothea-Erxleben-Straße,2,yes
51.1165336,13.9162944,"Radeberg, August-Bebel-Straße",-1,no
51.1058069,13.6650057,Bergblick,0,unknown
51.1076089,13.666433,Nizzastraße,0,unknown
51.0796039,13.6972949,Sörnewitzer Straße,2,yes
51.1080733,13.6756619,Eduard-Bilz-Straße,0,unknown
51.1080868,13.6782067,Fritz-Schulze-Straße,1,limited
51.1086615,13.6702995,Gutenbergstraße Radebeul,0,unknown
51.108732,13.6823379,Reichsstraße,0,unknown
51.1093659,13.6866849,"Radebeul, Fichtestraße",0,unknown
51.1107062,13.6900968,Hospiz Radebeul,0,unknown
51.1113748,13.7009718,Baumwiese,0,unknown
51.1125537,13.7514808,Festspielhaus Hellerau,-1,no
51.1124345,13.7605067,Heinrich-Tessenow-Weg,-1,no
51.0099691,13.7846257,Tornaer Straße,2,yes
51.0120508,13.7886854,Am Anger,2,yes
51.0284871,13.7861431,Gasanstaltstraße,0,unknown
51.0462745,13.7732327,Fetscherplatz,1,limited
50.9937123,13.7609565,Autobahnmeisterei,0,unknown
50.9944977,13.761841,Autobahnmeisterei,0,unknown
51.0037209,13.7644897,Leubnitzer Höhe,0,unknown
51.0065285,13.7658747,Koloniestraße,0,unknown
51.0888667,13.7497142,"Dresden, Justizvollzugsanstalt",2,yes
51.10707,13.7742311,"Klotzsche, Infineon",2,yes
51.1221132,13.7640658,Flughafen West,1,limited
51.0737408,13.6910066,Overbeckstraße,-1,no
51.0768387,13.6994659,An der Flutrinne,-1,no
51.0767422,13.6992518,An der Flutrinne,-1,no
51.0851412,13.7271824,Trachenberger Platz,1,limited
51.0927915,13.7198354,Ausrückehaltestelle Dorothea-Erxleben-Straße,0,unknown
51.0890114,13.7232728,Hubertusplatz,-1,no
51.0613883,13.7462082,Albertplatz,-1,no
51.0616713,13.7458416,Albertplatz,-1,no
51.0136582,13.7903644,Hülßestraße,-1,no
51.1188253,13.7680426,Ahlbecker Straße,0,unknown
51.1180257,13.7741237,Karlshagener Weg,1,limited
51.119981,13.7644598,Flughafenstraße,2,yes
51.1200453,13.7646291,Flughafenstraße,1,limited
50.9645328,13.8298197,Bosewitz,0,unknown
51.0873105,13.6357375,Ludwigstraße,0,unknown
51.08495,13.6458324,Gohlis,0,unknown
51.0825732,13.6523553,Am Urnenfeld,0,unknown
51.0794286,13.6595234,Podemusstraße,0,unknown
51.075537,13.6663721,Flensburger Straße,0,unknown
51.0584965,13.7104116,Waltherstraße,2,yes
51.0620751,13.667588,Droste-Hülshoff-Straße,0,unknown
51.0641856,13.6732474,Am Lehmberg,0,unknown
51.0639857,13.6761551,Schunckstraße,0,unknown
51.0183502,13.5871524,Oberhermsdorf Kreuzung,0,unknown
51.0689609,13.6602037,Schleswiger Straße,0,unknown
51.0283476,13.7109973,Kaitzer Straße,0,unknown
51.0273011,13.7152685,"Plauen, Nöthnitzer Straße",1,limited
51.0271095,13.7163412,"Plauen, Nöthnitzer Straße",-1,no
51.0262871,13.7208864,Regensburger Straße,1,limited
51.0264332,13.7206049,Regensburger Straße,1,limited
50.9767685,13.8721163,Heinrich-Zille-Straße,0,unknown
50.9805669,13.8698203,Rathaus,0,unknown
50.9828935,13.8659041,Friedensstraße,0,unknown
50.9450051,13.7574121,Kreischa Am Mühlgraben,0,unknown
50.95082,13.7690064,Gombsen Neugombsen,0,unknown
51.0408548,13.7793565,"Dresden, Mansfelder Straße",1,limited
50.9446404,13.7495105,Kreischa Oberer Dorfplatz,0,unknown
50.949215,13.7317133,Kreischa Abzw. Quohren,0,unknown
50.9423508,13.7649073,Freesienstraße,0,unknown
50.9350843,13.7724058,Abzweig nach Maxen,0,unknown
50.9348848,13.7724004,Abzweig nach Maxen,0,unknown
50.9458619,13.7604619,Kreischa Haußmannplatz,0,unknown
50.9447959,13.761795,Kreischa Kirche,0,unknown
50.9421628,13.7649171,Freesienstraße,0,unknown
50.9473008,13.7646549,Klinikum Kreischa,0,unknown
50.9512036,13.7694783,Gombsen Neugombsen,0,unknown
50.9478074,13.7653865,Klinikum Kreischa,0,unknown
50.9529344,13.7273197,Kreischa Abzw. Kleincarsdorf,2,yes
50.9447008,13.7489851,Kreischa Oberer Dorfplatz,0,unknown
50.9493705,13.7317668,Kreischa Abzw. Quohren,0,unknown
50.9564465,13.7762008,Gombsen,0,unknown
50.9681151,13.7125468,"Possendorf, Hauptstraße",2,yes
50.975753,13.715425,"Hainichen, Am Käferberg",0,unknown
50.9683718,13.7127186,"Possendorf, Hauptstraße",2,yes
50.9679394,13.7122894,"Possendorf, Hauptstraße",2,yes
51.1400307,13.66157,"Dippelsdorf, Großenhainer Straße",0,unknown
50.9939831,13.7176061,"Bannewitz, Windbergstraße",0,unknown
50.993885,13.7177648,"Bannewitz, Windbergstraße",0,unknown
51.1275062,13.9164929,"Radeberg, Badstraße (EKZ)",0,unknown
51.1278702,13.9167795,"Radeberg, Badstraße (EKZ)",0,unknown
51.1407758,13.9145005,Wachau Feldschlösschen Siedlung,-1,no
51.1408181,13.9146859,Wachau Feldschlösschen Siedlung,-1,no
51.1511702,13.5696649,Grundschule,-1,no
51.161526,13.5646188,Kirchplatz,2,yes
51.1620842,13.5676325,Rathaus,2,yes
51.1525313,13.5666108,Lessingstraße,2,yes
51.1090646,13.9043451,"Radeberg, Heinrich-Gläser-Straße",-1,no
51.1089894,13.9058318,"Radeberg, Heinrich-Gläser-Straße",-1,no
51.0056885,13.6885032,Gittersee Hermann-Michel-Straße,0,unknown
51.0059353,13.6885911,Gittersee Hermann-Michel-Straße,0,unknown
51.1000073,13.9129427,"Radeberg, Juri-Gagarin-Straße",0,unknown
51.1003071,13.9113243,"Radeberg, Juri-Gagarin-Straße",0,unknown
51.1020856,13.9133249,"Radeberg, Georg-Büchner-Straße",0,unknown
51.1028378,13.9136114,"Radeberg, Georg-Büchner-Straße",0,unknown
51.1074702,13.9170558,"Radeberg, Goethestraße",0,unknown
51.1076136,13.9174954,"Radeberg, Goethestraße",0,unknown
51.1768999,13.5610901,Bahnhof,0,unknown
51.0838736,13.6719375,Altkaditz,0,unknown
51.0842623,13.672588,Altkaditz,0,unknown
51.1373007,13.892647,"Radeberg-Liegau, Hofeberg",-1,no
51.1372744,13.89263,"Radeberg-Liegau, Hofeberg",-1,no
51.1382503,13.9007013,"Radeberg-Liegau, Abzweig Augustusbad",0,unknown
51.1371765,13.9008115,"Radeberg-Liegau, Abzweig Augustusbad",-1,no
51.0622433,13.8543093,"Bühlau, Ullersdorfer Platz",-1,no
51.0604578,13.8850083,Gasthof Weißig,1,limited
51.053728,13.8639961,"Dresden, Hornweg",1,limited
51.0621223,13.8533136,"Bühlau, Ullersdorfer Platz",-1,no
51.053283,13.8646326,"Dresden, Hornweg",1,limited
51.0621959,13.8544022,"Bühlau, Ullersdorfer Platz",-1,no
51.0535895,13.8637486,"Dresden, Hornweg",1,limited
51.0620864,13.8530866,"Bühlau, Ullersdorfer Platz",-1,no
51.0621338,13.8552112,"Bühlau, Ullersdorfer Platz",-1,no
51.0535211,13.8644899,"Dresden, Hornweg",1,limited
51.1049404,13.7102978,Heidefriedhof,2,yes
51.1409209,13.6822467,"Reichenberg, Sonnenland",0,unknown
51.1308174,13.685538,"Reichenberg, Niedergasse",0,unknown
51.1176488,13.6965827,"Boxdorf, Am Grunde",2,yes
51.1113098,13.6998524,Baumwiese,0,unknown
51.1408777,13.6820562,"Reichenberg, Sonnenland",0,unknown
51.1242816,13.6877932,"Reichenberg, Feldschlößchen",1,limited
51.1179783,13.6960932,"Boxdorf, Am Grunde",1,limited
51.1242228,13.6879346,"Reichenberg, Feldschlößchen",0,unknown
51.1111644,13.7016997,Baumwiese,1,limited
51.1044407,13.7104748,Heidefriedhof,2,yes
51.111196,13.7014184,Baumwiese,1,limited
51.1306068,13.6854309,"Reichenberg, Niedergasse",-1,no
51.1547377,13.6805085,"Moritzburg, Waldstraße/Bahnhof",0,unknown
51.1547377,13.6806551,"Moritzburg, Waldstraße/Bahnhof",0,unknown
51.0607292,13.9185358,"Weißig, Bautzner Landstraße",-1,no
51.0639043,13.9485568,"Rossendorf, Forschungszentrum",1,limited
51.0502001,13.7438709,Pirnaischer Platz,0,unknown
51.0437198,13.7380826,Walpurgisstraße,-1,no
51.0486271,13.7443428,Pirnaischer Platz,2,yes
51.0436684,13.7378331,Walpurgisstraße,-1,no
51.0637772,13.8212538,Plattleite,-1,no
51.0607751,13.9189671,"Weißig, Bautzner Landstraße",-1,no
51.0500675,13.8470099,"Dresden, Rochwitz Bühlauer Straße",2,yes
51.0539567,13.8207722,"Dresden, Obere Station Schwebebahn",2,yes
51.0555884,13.8317658,"Dresden, Zweibrüderweg",2,yes
51.0553302,13.8320847,"Dresden, Zweibrüderweg",2,yes
51.0513235,13.8309711,"Dresden, Kotzschweg",2,yes
51.0570907,13.8341055,"Dresden, Scharfensteinstraße",2,yes
51.0530745,13.8285815,"Dresden, Amselsteg",2,yes
51.0592734,13.8322559,"Dresden, Tännichtstraße",1,limited
51.0591857,13.8324283,"Dresden, Tännichtstraße",1,limited
51.0529659,13.8282829,"Dresden, Amselsteg",2,yes
51.0562118,13.8618167,"Dresden, Quohrener Straße",1,limited
51.0538837,13.8256431,"Dresden, Malerstraße",2,yes
51.0505899,13.8447915,"Dresden, Hutbergstraße",1,limited
51.0564649,13.8194866,"Dresden, Rißweg",1,limited
51.0522256,13.8038533,Schillerplatz (Betriebshaltestelle),-1,no
51.0562091,13.8203292,"Dresden, Rißweg",1,limited
51.0522765,13.8034206,Schillerplatz (Ausstieg),-1,no
51.0584914,13.8287203,"Dresden, Steglichstraße",1,limited
51.0585195,13.8281047,"Dresden, Steglichstraße",1,limited
51.0617546,13.8485099,Grundstraße,-1,no
51.0625832,13.8552925,"Bühlau, Ullersdorfer Platz",-1,no
51.0194457,13.7252527,"Dresden, Höckendorfer Weg",-1,no
51.0269292,13.7096525,"Dresden, Plauenscher Ring",1,limited
51.0187948,13.7064514,"Dresden, Saarstraße",2,yes
51.0437608,13.7031121,Tharandter Straße,1,limited
51.0436861,13.7029277,Tharandter Straße,1,limited
51.0190749,13.7060652,"Dresden, Saarstraße",2,yes
51.0222752,13.7169045,"Dresden, Cämmerswalder Straße",2,yes
51.0194026,13.7256565,"Dresden, Höckendorfer Weg",-1,no
51.0223486,13.7178474,"Dresden, Cämmerswalder Straße",2,yes
51.0216766,13.7101552,"Dresden, Kotteweg",2,yes
51.0198989,13.7068053,"Dresden, Saarstraße",2,yes
51.0185573,13.7064037,"Dresden, Saarstraße",2,yes
51.0493392,13.7941695,"Dresden, Hüblerplatz",2,yes
51.0492327,13.7940095,"Dresden, Hüblerplatz",2,yes
51.0067226,13.8806487,"Dresden, Lohmener Straße",2,yes
51.0082255,13.8756919,"Dresden, Pillnitzer Platz",2,yes
51.0187726,13.8558729,"Dresden, An der Obstplantage",2,yes
50.9998966,13.9006949,"Dresden, Am Waldrand",0,unknown
51.012488,13.8734083,"Dresden, Rathaus Pillnitz",-1,no
51.0049627,13.8858256,"Dresden, Am Schöpsdamm",2,yes
51.0067264,13.8801597,"Dresden, Lohmener Straße",2,yes
50.9999317,13.9003609,"Dresden, Am Waldrand",0,unknown
51.008615,13.8746978,"Dresden, Pillnitzer Platz",-1,no
51.0186035,13.8563317,"Dresden, An der Obstplantage",2,yes
51.0123526,13.8735113,"Dresden, Rathaus Pillnitz",1,limited
51.0049162,13.8863905,"Dresden, Am Schöpsdamm",2,yes
51.0023377,13.8945787,"Dresden, Dorfplatz Oberpoyritz",0,unknown
51.0024564,13.8944185,"Dresden, Dorfplatz Oberpoyritz",0,unknown
51.0623182,13.8546154,"Bühlau, Ullersdorfer Platz",-1,no
51.059286,13.8579128,"Dresden, Cunewalder Straße",1,limited
51.0504179,13.8472341,"Rochwitz, Bühlauer Straße",2,yes
51.0592999,13.8581309,"Dresden, Cunewalder Straße",1,limited
51.0556877,13.8627642,"Dresden, Quohrener Straße",1,limited
51.0570839,13.8339096,"Dresden, Scharfensteinstraße",2,yes
51.0513333,13.8306424,"Dresden, Kotzschweg",2,yes
51.058641,13.839811,"Dresden, Elisabethstraße",1,limited
51.0588014,13.840508,"Dresden, Elisabethstraße",1,limited
51.0294884,13.6868353,"Dresden, Alfred-Thiele-Straße",-1,no
51.0317168,13.685672,"Dresden, Rüdesheimer Straße",1,limited
51.0435768,13.7248665,Budapester Straße,2,yes
51.0592219,13.7831168,"Dresden, Johannstadt",-1,no
51.035239,13.6843578,"Dresden, Kölner Straße",1,limited
51.0436147,13.7243711,Budapester Straße,2,yes
51.1519504,13.9595359,"Leppersdorf, Schule",0,unknown
51.0507564,13.7323537,Postplatz - Nur zum Ausstieg,2,yes
51.0799269,13.6970152,Sörnewitzer Straße,2,yes
51.0708303,13.635818,Alt- Leuteritz,0,unknown
51.0707494,13.6360218,Dresden Altleuteritz,0,unknown
51.0711067,13.6385217,An der Autobahn,0,unknown
51.0707492,13.6380163,"Merbitz, Autobahnbrücke",0,unknown
51.0842094,13.7283637,Trachenberger Platz,2,yes
51.1162456,13.9225486,"Radeberg, Stolpener Straße",0,unknown
51.1150078,13.9247547,"Radeberg, Stolpener Straße",2,yes
51.1288972,13.8421462,"Dresden-Langebrück, Spritzenhaus",0,unknown
51.0505992,13.7135905,Cottaer Straße,-1,no
51.0619344,13.728612,Pieschener Allee,0,unknown
50.9441097,13.7010568,"Karsdorf, B170",0,unknown
51.1320025,13.5414022,Brockwitz Bäckerei,0,unknown
51.1648221,13.8794831,"Seifersdorf, Wendeplatz",1,limited
51.1644915,13.8794094,"Seifersdorf, Wendeplatz",1,limited
50.9382877,13.8520983,FAlkenhain Ortsanfang,0,unknown
51.0255449,13.829583,Burgenlandstraße,-1,no
51.0235169,13.8256081,Reichenhaller Straße,2,yes
51.0277641,13.8325965,Troppauer Straße,1,limited
50.9548718,13.857288,"Dohna, Markt",0,unknown
51.0317177,13.6858006,Rüdesheimer Straße,0,unknown
51.0580466,13.5909021,Unkersdorf Kirche,0,unknown
51.1098937,13.6050865,Radebeul Naundorf,0,unknown
51.0656856,13.7419961,Bahnhof Neustadt,1,limited
51.0408523,13.7332729,Hauptbahnhof,2,yes
51.0417241,13.7354111,Hauptbahnhof Nord,2,yes
51.0649819,13.742158,Bahnhof Neustadt,1,limited
51.055357,13.7230542,Bahnhof Mitte / Jahnstraße,2,yes
50.9843041,13.580569,"Tharandt, Markt",0,unknown
50.9799214,13.5434918,"Kurort Hartha, Kurplatz",0,unknown
50.9835648,13.5419872,Kurort Hartha Genesungsheim,0,unknown
50.9864175,13.531573,"Spechtshausen, Forstamt",0,unknown
50.9878597,13.5270765,"Spechtshausen, Gasthaus",0,unknown
50.9806643,13.5457589,"Kurort Hartha, Abzweig Spechtshausen",0,unknown
50.9804945,13.5457276,"Kurort Hartha, Abzweig Spechtshausen",0,unknown
50.9917617,13.527406,"Pohrsdorf, Sonnenlehne",0,unknown
50.9950869,13.528388,"Pohrsdorf, Abzweig Fördergersdorf",0,unknown
50.9959782,13.5282056,"Pohrsdorf, Abzweig Fördergersdorf",0,unknown
50.9952084,13.5423033,"Fördergersdorf, Gasthaus",0,unknown
50.9947155,13.5469972,"Fördergersdorf, Niederdorf",0,unknown
51.0960608,13.7191583,Wilder Mann,-1,no
51.0961648,13.7191254,Wilder Mann,-1,no
51.0880117,13.7192151,Boxdorfer Straße,0,unknown
51.0507557,13.8013572,"Dresden, Wägnerstraße",2,yes
51.0957993,13.7194514,Wilder Mann,-1,no
51.0958465,13.7194236,Wilder Mann,-1,no
50.9678517,13.8559866,Martin-Luther-Straße,0,unknown
50.9687013,13.8561247,Martin-Luther-Straße,0,unknown
51.0815015,13.9002138,"Ullersdorf, Gasthof",0,unknown
51.080042,13.8971108,"Ullersdorf, Langebrücker Straße",0,unknown
51.0009316,13.8247888,"Dresden, An der Post",0,unknown
51.0010632,13.8246869,"Dresden, An der Post",0,unknown
51.0176496,13.8080124,"Dresden, An der Rennbahn",0,unknown
51.0155131,13.8099977,"Dresden, Vollmarstraße",0,unknown
51.0086148,13.8558037,"Kleinzschachwitz, Freystraße",-1,no
50.9978374,13.8093209,"Dresden, Göppersdorfer Weg",1,limited
50.9979184,13.8095998,"Dresden, Göppersdorfer Weg",1,limited
51.0256755,13.7570855,Heinrich-Zille-Straße,1,limited
50.9838614,13.7992173,Dresden Kelterei,0,unknown
50.9836018,13.7988262,Dresden Kelterei,0,unknown
50.9967611,13.8071641,Kurt-Tucholsky-Straße,1,limited
50.9969873,13.807325,Kurt-Tucholsky-Straße,1,limited
51.0589043,13.6620045,"Dresden, Martin-Opitz-Straße",0,unknown
51.0927043,13.6411938,Niedergohlis Südstraße,0,unknown
51.0943822,13.6423632,Niedergohlis Dorfstraße,0,unknown
51.0888017,13.6467837,"Dresden, Obergohlis",1,limited
51.0788991,13.7322606,"Dresden, Pestalozziplatz",1,limited
51.0029166,13.8210347,"Dresden, Reisstraße",0,unknown
51.0231314,13.7467597,"Dresden, Rubensweg",1,limited
50.9821764,13.7961455,Dresden Sobrigauer Weg,0,unknown
50.9817706,13.7959834,Dresden Sobrigauer Weg,0,unknown
51.0366986,13.7401717,Uhlandstraße,2,yes
51.0368991,13.7397584,Uhlandstraße,2,yes
51.092422,13.6449319,Windmühlenweg,0,unknown
51.0584021,13.640873,Zschonergrund Mühle,0,unknown
50.9779785,13.7940912,Dresden Fußweg nach Borthen,0,unknown
51.0240159,13.8381148,Leubener Straße,2,yes
51.0280068,13.8344604,Hermann-Seidel-Straße,-1,no
51.0002212,13.8292677,Försterlingstraße,0,unknown
51.0277685,13.8347354,Hermann-Seidel-Straße,-1,no
51.0659397,13.7983772,Elbschlösser,2,yes
51.0671559,13.7779173,Waldschlößchen,2,yes
51.017369,13.7027686,"Dresden, Achtbeeteweg",2,yes
51.0659846,13.7971392,Elbschlösser,2,yes
51.0669774,13.7851944,Angelikastraße,2,yes
51.1117241,13.9551997,"Arnsdorf-Wallroda, Kreuzung",0,unknown
51.0460433,13.6795746,Dahlienweg,-1,no
51.1602693,13.6801153,"Moritzburg, Rathaus",1,limited
51.1554455,13.6828077,"Moritzburg, Bahnhof",0,unknown
51.1601468,13.632223,"Auer, Gasthof",-1,no
51.1599549,13.6793595,"Moritzburg, Roßmarkt",-1,no
51.1552657,13.6824701,"Moritzburg, Bahnhof",0,unknown
51.1640777,13.6798228,"Moritzburg, Schloß",1,limited
51.1753579,13.6204569,"Neuer Anbau, Zum Heidehof",-1,no
51.156003,13.6838014,"Moritzburg, Bahnhof",0,unknown
51.1660219,13.6753652,"Moritzburg, Kalkreuther Straße",1,limited
51.1606411,13.6318677,"Auer, Gasthof",-1,no
51.1642546,13.6773542,"Moritzburg, Markt",1,limited
51.0991782,13.7157357,"Dresden, Neuländer Straße",2,yes
51.0764876,13.7329437,Liststraße,1,limited
51.0989986,13.7156355,"Dresden, Neuländer Straße",2,yes
51.0689067,13.7383341,Lößnitzstraße,1,limited
51.0684806,13.7387999,Lößnitzstraße,1,limited
50.9367009,13.6911943,Karsdorf Wendeplatz,0,unknown
50.9500931,13.666748,Oelsa Mitte,0,unknown
50.9502553,13.6657073,Oelsa Mitte,0,unknown
50.9442934,13.671769,Oelsa Gasthof,0,unknown
51.0641476,13.7371013,Anton- / Leipziger Straße,2,yes
51.112112,13.59005,Radebeul Kleinstückenweg,0,unknown
51.1184681,13.5731275,Coswig-Kötitz Schule,0,unknown
51.1167079,13.5722214,"Kötitz, Gasthaus",0,unknown
51.126102,13.5724178,Coswig Deutsche Eiche,2,yes
51.1325777,13.5403832,Brockwitz Bäckerei,0,unknown
51.1415306,13.5975346,"Coswig, Spitzgrundmühle",0,unknown
51.1578777,13.5949679,Laubenhöhe,2,yes
51.1415652,13.5972781,"Coswig, Spitzgrundmühle",0,unknown
51.1576151,13.5948018,Laubenhöhe,2,yes
50.9931552,13.7163656,Bannewitz Carl-Behrens-Straße,0,unknown
50.9929996,13.715763,Bannewitz Carl-Behrens-Straße,0,unknown
50.9705476,13.8783779,Sachseneck,0,unknown
50.9706288,13.8785174,Sachseneck,0,unknown
50.9897542,13.7069299,"Bannewitz, Siedlung",0,unknown
50.9917464,13.6956861,"Kleinnaundorf, Saarstr",0,unknown
51.070837,13.6357778,Dresden Altleuteritz,0,unknown
51.0875439,13.6284411,Erna-Berger-Straße,0,unknown
51.0890792,13.6229279,An den Winkelwiesen,0,unknown
51.0403471,13.6451654,Altnossener Straße,0,unknown
50.998222,13.6786409,"Kleinnaundorf, Am Birkenwäldchen",0,unknown
51.0118598,13.617508,Wendeplatz,0,unknown
50.9804574,13.8604713,Bahnhof Heidenau,2,yes
50.9762897,13.8719688,Heinrich-Zille-Straße,0,unknown
51.0601017,13.717526,Krankenhaus Friedrichstadt,2,yes
50.9644007,13.882071,Rosa-Luxemburg-Straße,0,unknown
50.96757,13.873848,Ärztehaus,2,yes
50.9650423,13.8820741,Fritz-Gumpert-Platz,0,unknown
51.1164606,13.9164007,"Radeberg, August-Bebel-Straße",-1,no
51.0631209,13.7156179,Alberthafen,2,yes
51.0607969,13.7151558,Vorwerkstraße,2,yes
51.0635702,13.7157158,Alberthafen,2,yes
51.0609544,13.7149447,Vorwerkstraße,2,yes
51.0674206,13.6708701,Schulberg,0,unknown
51.0689665,13.6600183,Schleswiger Straße,0,unknown
51.06091,13.6773133,Gottfried-Keller-Straße,-1,no
51.0642674,13.6754088,Schunkstraße,0,unknown
51.0554303,13.5933396,"Unkersdorf, Teichweg",0,unknown
51.0676173,13.6699421,Schulberg,0,unknown
51.0877043,13.6321091,Schulstraße,0,unknown
51.088084,13.6286511,Erna-Berger-Straße,0,unknown
51.0812374,13.6083808,"Cossebaude, Dorotheenstraße 93",0,unknown
51.0855272,13.6308921,Bahnhof Cossebaude,0,unknown
51.0853553,13.6318308,Bahnhof Cossebaude,-1,no
51.0878503,13.6321488,Schulstraße,0,unknown
51.0858376,13.629557,Bahnhof Cossebaude,-1,no
51.0854436,13.6314547,Bahnhof Cossebaude,0,unknown
51.0047554,13.6630028,Burgk Windbergallee,0,unknown
51.0057564,13.6447457,Freital Döhlen Am Langen Rain,0,unknown
51.0026017,13.6159603,Freital Weißig Schulstraße,0,unknown
51.0049022,13.6331246,Freital Döhlen Mittelweg,0,unknown
51.0340501,13.8005673,Bärensteiner Straße,-1,no
51.0340615,13.8006555,Bärensteiner Straße,-1,no
50.9874906,13.6689226,Niederhäslich Dorfplatz,0,unknown
50.9861626,13.6762984,NiederhäslichTanzschule,0,unknown
50.9874492,13.669003,Niederhäslich Dorfplatz,0,unknown
50.933513,13.5697451,Wendeplatz,0,unknown
51.042236,13.6786139,Julius-Vahlteich-Straße,-1,no
51.051417,13.5378176,Wilsdruff Markt,0,unknown
51.0398724,13.5436102,"Wilsdruff, Freiberger Straße",0,unknown
51.0348879,13.5480865,"Grumbach, Mühlweg",0,unknown
51.0312586,13.5476115,Grumbach Wendeplatz,0,unknown
51.0393207,13.6516387,Am Altfrankener Park,0,unknown
51.0398396,13.5438155,"Wilsdruff, Freiberger Straße",1,limited
51.0558252,13.5465637,Hühndorfer Höhe Kleingärten,0,unknown
51.0324391,13.5893822,Kesselsdorf Straße des Friedens,0,unknown
51.0400632,13.6596988,Hirtenstraße,0,unknown
51.0391875,13.6518714,Am Altfrankener Park,0,unknown
51.0463838,13.5382187,"Wilsdruff, Bahnhof",0,unknown
51.032228,13.5896352,Kesselsdorf Straße des Friedens,0,unknown
51.0466041,13.5578603,"Wilsdruff, Abzweig Kaufbach",0,unknown
51.0602998,13.5539849,Hühndorfer Höhe Ost,0,unknown
51.042303,13.6789247,Julius-Vahlteich-Straße,-1,no
51.039979,13.6594726,Hirtenstraße,0,unknown
51.0502647,13.5370024,"Wilsdruff, Gezinge (Schule)",0,unknown
51.0407716,13.6740666,Wölfnitzer Ring,0,unknown
51.0501331,13.5371048,"Wilsdruff, Gezinge (Schule)",0,unknown
51.0595217,13.5419107,Hühndorfer Höhe West,0,unknown
51.0468238,13.5570265,"Wilsdruff, Abzweig Kaufbach",0,unknown
51.0511874,13.5378643,Wilsdruff Markt,0,unknown
50.9734829,13.8602754,Erlichtmühle,0,unknown
50.9730658,13.8592294,Erlichtmühle,0,unknown
51.051565,13.5751537,"Kaufbach, Zur Windmühle (Wendeplatz)",0,unknown
51.032478,13.585795,Kesselsdorf Grumbacher Straße,0,unknown
51.1107032,13.5682706,Gauernitz Verkaufsstelle,0,unknown
50.996208,13.848943,Struppener Straße,0,unknown
50.996276,13.849233,Struppener Straße,0,unknown
50.9888104,13.8293683,Krebser Straße,0,unknown
51.0105183,13.5614462,"Grumbach, Am Kalkofen",0,unknown
51.0462253,13.5384266,"Wilsdruff, Bahnhof",0,unknown
51.0187418,13.5594158,"Grumbach, Braunsdorfer Straße",0,unknown
50.9837134,13.5419301,Kurort Hartha Genesungsheim,0,unknown
50.9955976,13.5353377,"Fördergersdorf, Abzweig Spechtshausen",0,unknown
50.9916601,13.5272257,"Pohrsdorf, Sonnenlehne",0,unknown
50.9889389,13.5725886,"Tharandt, Fördergersdorfer Straße",0,unknown
51.0006703,13.5705485,"Kleinopitz, Abzweig Fördergersdorf",0,unknown
50.9953364,13.5427177,"Fördergersdorf, Gasthaus",0,unknown
51.0368398,13.5865076,"Kesselsdorf, Unkersdorfer Straße",0,unknown
50.9820656,13.548009,"Kurort Hartha, Kirchners Gaststätte",0,unknown
51.0291812,13.550558,Schulbus,0,unknown
50.9821152,13.5479367,"Kurort Hartha, Kirchners Gaststätte",0,unknown
51.0362586,13.5952091,"Kesselsdorf, Frankenring",0,unknown
50.9865122,13.531488,"Spechtshausen, Forstamt",0,unknown
51.0362359,13.5954066,"Kesselsdorf, Frankenring",0,unknown
50.9799926,13.5432354,"Kurort Hartha, Kurplatz",0,unknown
51.0259832,13.5528353,"Grumbach, Kirche",0,unknown
50.9876512,13.5279735,"Spechtshausen, Gasthaus",0,unknown
50.9946675,13.5467428,"Fördergersdorf, Niederdorf",0,unknown
51.0188059,13.5592475,"Grumbach, Braunsdorfer Straße",0,unknown
50.9816678,13.5544906,"Kurort Hartha, Buchenweg",-1,no
50.9888262,13.5725496,"Tharandt, Fördergersdorfer Straße",0,unknown
51.0258934,13.553034,"Grumbach, Kirche",0,unknown
51.0104069,13.5613996,"Grumbach, Am Kalkofen",0,unknown
51.0368541,13.5866636,"Kesselsdorf, Unkersdorfer Straße",0,unknown
51.0005929,13.5715143,"Kleinopitz, Abzweig Fördergersdorf",0,unknown
50.9842812,13.5630915,"Kurort Hartha, Talmühle",0,unknown
51.0350053,13.5481862,"Grumbach, Mühlweg",0,unknown
50.9956586,13.5353297,"Fördergersdorf, Abzweig Spechtshausen",0,unknown
50.9852881,13.5803033,"Tharandt, Ärztehaus",0,unknown
50.9816621,13.5542615,"Kurort Hartha, Buchenweg",-1,no
50.9845654,13.563225,"Kurort Hartha, Talmühle",0,unknown
51.019103,13.735864,Ludwig-Renn-Allee,2,yes
51.0190134,13.7412652,"Zschertnitz, Münzmeisterstr",-1,no
51.0152513,13.7409391,Altmockritz,0,unknown
51.0142928,13.7477524,Campingplatz Mockritz,1,limited
51.0143614,13.7481107,Campingplatz Mockritz,2,yes
51.0148955,13.7512266,Münzteichweg,0,unknown
51.0149478,13.7516847,Münzteichweg,0,unknown
51.0197533,13.7306444,Südhöhe,2,yes
51.0128349,13.730543,Bannewitzer Straße,0,unknown
51.0146117,13.7269015,Altkaitz,0,unknown
51.0143377,13.7266291,Altkaitz,0,unknown
51.0185694,13.7590045,Mockritz,0,unknown
51.0203629,13.7556727,Otto-Pilz-Straße,0,unknown
51.0021925,13.7642236,Gombsener Straße,0,unknown
51.0023301,13.7641198,Gombsener Straße,0,unknown
50.9508173,13.9536839,Pirna Sonnenstein Süd,0,unknown
50.950545,13.956886,Pirna Deciner Straße,0,unknown
50.9521738,13.9557492,Pirna Remscheider Straße,0,unknown
50.9539096,13.9584554,Varkausring,0,unknown
51.0675235,13.7208707,Parkplatz Ostragehege,0,unknown
51.1015511,13.6854336,August-Bebel-Straße,0,unknown
51.1056262,13.6856127,August-Bebel-Straße/Waldstraße,0,unknown
51.1071476,13.6904146,Waldstraße,0,unknown
51.0884452,13.6138172,Amselgrund,0,unknown
51.0886493,13.6131941,Amselgrund,0,unknown
51.0886602,13.6134922,Amselgrund,0,unknown
51.0890995,13.6229069,An den Winkelwiesen,0,unknown
51.0891818,13.6217935,An den Winkelwiesen,0,unknown
51.0518673,13.5604976,Kaufbach Agragenossenschaft,0,unknown
51.051969,13.5604218,Kaufbach Agragenossenschaft,0,unknown
51.0519677,13.569816,Kaufbach Gasthof,0,unknown
51.0520934,13.5699161,Kaufbach Gasthof,0,unknown
51.0516191,13.5752031,"Kaufbach, Zur Windmühle (Wendeplatz)",0,unknown
51.0940406,13.6038874,Niederwartha Haltepunkt,0,unknown
51.0945521,13.6036197,Niederwartha Haltepunkt,0,unknown
51.0397615,13.5862734,"Kesselsdorf, Inselallee",0,unknown
51.0934983,13.6047848,Niederwartha,0,unknown
51.0905266,13.6090525,Rohrbahn,0,unknown
51.0906036,13.6090201,Rohrbahn,0,unknown
51.0861525,13.5849774,Weistropp Dorfplatz,0,unknown
51.093994,13.6044449,Ersatzhaltestelle,0,unknown
51.0936804,13.6054189,Niederwartha Haltepunkt,0,unknown
50.9778769,13.7941261,Dresden Fußweg nach Borthen,0,unknown
50.9449053,13.7567925,Kreischa Am Mühlgraben,0,unknown
50.9444377,13.7620462,Kreischa Kirche,0,unknown
51.0057314,13.8077018,Niedersedlitzer Straße,0,unknown
51.0058243,13.8080289,Niedersedlitzer Straße,0,unknown
50.9535713,13.8614473,"Dohna, Reppchenstraße",0,unknown
50.9590476,13.8569763,Dresdner Straße,0,unknown
50.9621017,13.9297628,Pirna ZOB/Bf,0,unknown
50.9617909,13.9293443,Pirna ZOB/Bf,0,unknown
50.9618855,13.9293551,ZOB/Bf,0,unknown
50.9617807,13.9291566,Pirna ZOB/Bf,0,unknown
50.962024,13.9292746,Pirna ZOB/Bf,0,unknown
50.9620578,13.9295214,Pirna ZOB/Bf,0,unknown
50.9619868,13.9299613,Pirna ZOB/BF,0,unknown
50.9617875,13.9296394,Pirna ZOB/Bf,0,unknown
50.961926,13.9296555,ZOB/BF,0,unknown
50.9617976,13.9299291,Pirna ZOB/Bf,0,unknown
50.9619666,13.9290386,Pirna ZOB/Bf,0,unknown
50.9321241,13.9137076,Zuschendorf Lindental,0,unknown
50.9373987,13.8917492,Krebs,0,unknown
50.9965855,13.6504434,Deuben Sachsenplatz,0,unknown
50.992839,13.6569003,Am Hexenberg,0,unknown
51.0071037,13.6749436,Birkigt Zur Schicht,0,unknown
51.012072,13.6767675,Birkigt Finkenmühlenstraße,0,unknown
51.0007321,13.6831163,"Kleinnaundorf, Reiboldschachtring",0,unknown
51.0117561,13.6780432,Birkigt Schule,0,unknown
50.9917835,13.7122585,"Bannewitz, Wendeplatz",0,unknown
50.9933299,13.7777687,Kauscha,0,unknown
51.0105755,13.6786668,Birkigt Schule,0,unknown
50.989744,13.7625231,"Goppeln, Leubnitzer Straße",0,unknown
50.9907878,13.6567992,Freital Wilhelm-Müller-Straße,0,unknown
50.9862137,13.6620063,Niederhäslich Waldblick,0,unknown
50.9881013,13.6598199,Niederhäslich Raschelberg,0,unknown
50.9922985,13.6369867,Freital Bergstraße,0,unknown
50.9783935,13.6220547,Freital Coßmannsdorf Schule,0,unknown
50.9766232,13.6096271,Somsdorf In der Tilke,0,unknown
50.9959855,13.6377806,Freital Pfaffengrund,0,unknown
50.976354,13.6136907,Freital Alter Berg,-1,no
50.9746769,13.6010785,Somsdorf Am Graben,-1,no
50.975771,13.6046821,Somsdorf Gasthof,0,unknown
50.9881723,13.6333818,Freital Am Bäckerberg,0,unknown
51.0434835,13.7023627,Löbtau Gröbelstraße,1,limited
51.0191484,13.6383078,Kohlsdorfer Straße,0,unknown
51.014555,13.6364262,Freital Zauckerode Ambulatorium,0,unknown
51.0027308,13.5923087,Kleinopitz Weißiger Straße,0,unknown
51.0071103,13.5955272,Kleinopitz Wendeplatz,0,unknown
50.9977976,13.6041643,Freital Weißig Wendeplatz,0,unknown
51.0063469,13.5903505,Kleinopitz Kreuzstraße,0,unknown
51.0201255,13.5915814,Oberhermsdorf Schule,0,unknown
51.0002351,13.6107089,Freital Weißig Deubener Weg,0,unknown
51.0174021,13.6356636,Freital Zauckerode Kindergarten,0,unknown
50.9849193,13.697135,Possendorf Poisental Abzw. Bannewitz,0,unknown
50.9873582,13.670653,Niederhäslich Dorfplatz,0,unknown
50.9662605,13.7195106,Possendorf Niederdorf,2,yes
50.9624904,13.7229325,Possendorf Am Spitzberg,2,yes
50.9983394,13.5291447,Pohrsdorf Gemeindeamt,0,unknown
50.9576957,13.6607533,Oelsa Einkaufsmarkt,0,unknown
51.0314753,13.5476607,Grumbach Wendeplatz,0,unknown
50.9536813,13.661955,Oelsa Polstermöbelindustrie,0,unknown
50.9747105,13.6315066,Eckersdorf Gasthof,0,unknown
51.0604635,13.6955243,Bremer Straße,2,yes
51.0606854,13.6947846,Bremer Straße,2,yes
51.0616542,13.6806925,Cossebauder Straße,-1,no
51.0615564,13.6803546,Cossebauder Straße,-1,no
51.0613123,13.6915197,Flügelweg,2,yes
51.061448,13.6907928,Flügelweg,2,yes
51.0609664,13.6777233,Gottfried-Keller-Straße,-1,no
51.0589553,13.7035709,Hamburger Straße,1,limited
51.0118815,13.8089763,Haltepunkt Dobritz,2,yes
51.0021204,13.798674,Georg-Palitzsch-Straße,-1,no
51.0042885,13.7978398,Jacob-Winter-Platz,-1,no
51.0046961,13.7986029,Jacob-Winter-Platz,-1,no
51.0526912,13.7268882,Schweriner Straße,2,yes
51.0581964,13.7095169,Waltherstraße,-1,no
51.0896015,13.7091942,Krankenhaus Neustadt,2,yes
51.0898308,13.7086875,Krankenhaus Neustadt,2,yes
51.0117729,13.8089631,Haltepunkt Dobritz,2,yes
51.0208062,13.8117923,Lassallestraße,-1,no
51.0258559,13.8043145,Marienberger Straße,-1,no
51.1170694,13.7408112,"Hellerau, Kiefernweg",-1,no
51.1172339,13.7401692,"Hellerau, Kiefernweg",-1,no
51.093775,13.7162681,Stephanstraße,0,unknown
51.0954261,13.7149131,Stephanstraße,0,unknown
51.0295716,13.7319802,Technische Universität (Fritz-Foerster-Platz),2,yes
51.0299174,13.7314407,Technische Universität (Fritz-Foerster-Platz),2,yes
51.0289518,13.7390375,Staats- und Universitätsbibliothek,1,limited
51.0291773,13.7375623,Staats- und Universitätsbibliothek,1,limited
51.0282112,13.7470546,Zellescher Weg,2,yes
51.0286365,13.7449511,Zellescher Weg,2,yes
51.0298445,13.7833435,Fraunhofer-Institutszentrum,1,limited
51.0284308,13.7867846,Gasanstaltstraße,0,unknown
51.030873,13.7808115,Grunaer Weg,1,limited
51.0248993,13.7893122,Nätherstraße,0,unknown
51.0256999,13.7889367,Nätherstraße,0,unknown
51.0465744,13.7725128,Fetscherplatz,1,limited
51.048317,13.7431913,Pirnaischer Platz,2,yes
51.0490394,13.7438546,Pirnaischer Platz,2,yes
51.0114057,13.8081943,Haltepunkt Dobritz,2,yes
51.052752,13.7265648,Schweriner Straße,2,yes
51.0115143,13.8273362,Altleuben,2,yes
51.0095945,13.8306938,Berthold-Haupt-Straße,2,yes
51.0083325,13.8545055,"Kleinzschachwitz, Freystraße",-1,no
51.0085329,13.8548665,"Kleinzschachwitz, Freystraße",-1,no
51.0079632,13.8487823,Meußlitzer Straße,-1,no
51.0498737,13.7462493,Pirnaischer Platz,0,unknown
51.0399835,13.6452469,Altnossener Straße,2,yes
51.0405181,13.6325114,"Gompitz, Gompitzer Höhe",2,yes
51.0915205,13.7650269,Hellersiedlung,-1,no
51.0917776,13.7654217,Hellersiedlung,-1,no
51.1081264,13.7732879,Infineon Nord,2,yes
51.1027689,13.7703548,Infineon Süd,-1,no
51.1143354,13.784053,Zur Neuen Brücke,-1,no
51.106053,13.6603844,Landesbühnen Sachsen,2,yes
51.1060123,13.659652,Landesbühnen Sachsen,2,yes
51.080249,13.7140552,Mickten,2,yes
51.086641,13.7043735,Rankestraße,2,yes
51.1274288,13.7219489,"Wilschdorf, Industriegebiet",0,unknown
51.1276609,13.7220983,"Wilschdorf, Industriegebiet",0,unknown
51.126463,13.7315406,Wilschdorfer Landstraße,0,unknown
51.1186358,13.7315387,Saßnitzer Straße,1,limited
51.1188038,13.7313681,Saßnitzer Straße,2,yes
51.117322,13.7122489,Lößnitzweg,0,unknown
51.1173642,13.7118019,Lößnitzweg,0,unknown
51.0522962,13.7771507,Blasewitzer Straße / Fetscherstraße,-1,no
51.049525,13.774436,Gabelsbergerstraße,-1,no
51.0493269,13.7742458,Gabelsbergerstraße,-1,no
51.0268389,13.8652431,Rockau - Am Dorfplatz,0,unknown
51.0120486,13.8259508,Altleuben,2,yes
51.1120893,13.8981986,"Radeberg, Forststraße",-1,no
51.1132689,13.8910054,"Radeberg, Heidehäuser",0,unknown
51.1031194,13.9050427,"Radeberg, Robert-Blum-Weg",0,unknown
51.1752176,13.5511969,Weinböhlaer Straße ►,2,yes
51.1732323,13.5385934,Deutsches Haus,0,unknown
51.1734436,13.5393351,Deutsches Haus,0,unknown
51.1768835,13.5608065,Bahnhof,0,unknown
51.1122663,13.9186108,"Radeberg, Dr.-Albert-Dietze-Straße",0,unknown
51.1140517,13.9312489,"Radeberg, Zur Sternwarte",2,yes
51.1518459,13.5738302,Köhlerstraße,-1,no
51.1538343,13.5802891,Friedensstraße,0,unknown
51.1649833,13.5702226,Mittelschule,0,unknown
51.1059747,13.9205442,"Radeberg, Richard-Wagner-Straße",0,unknown
51.1062894,13.9196716,"Radeberg, Richard-Wagner-Straße",0,unknown
51.1023706,13.9279986,"Radeberg, C.-Eschebach-Straße",0,unknown
51.1639895,13.5736452,Bahnhofstraße,0,unknown
51.1567631,13.5894112,Weg zum Sportplatz,-1,no
51.1532155,13.5633151,Tannenstraße,-1,no
51.1659541,13.5627722,Poststraße,2,yes
51.1680462,13.5787941,Sachsenplatz,0,unknown
51.0280852,13.7117803,Kaitzer Straße,0,unknown
51.1287946,13.9161407,"Radeberg, An der Ziegelei",0,unknown
51.1624167,13.5622429,Nassauhalle,2,yes
51.164726,13.5821885,Moritzburger Straße,-1,no
51.1430908,13.5339917,Mittelweg,0,unknown
51.1396512,13.5286809,Wasserwerk,0,unknown
51.1629447,13.5942164,Laubenschlösschen,2,yes
51.1636765,13.589331,Laubengasse,-1,no
51.1636227,13.5774762,Maxstraße,-1,no
51.1260414,13.9426635,"Radeberg, Großröhrsdorfer Straße",0,unknown
51.127038,13.9077534,"Radeberg-Lotzdorf, Gasthof",0,unknown
51.1292234,13.903893,"Radeberg-Lotzdorf, Röderbrücke",-1,no
51.1072034,13.628827,S-Bf. Kötschenbroda,0,unknown
50.9493467,13.9414795,Pirna Otto-Walther-Straße,0,unknown
50.9799739,13.9306123,Wesenitztalschänke,0,unknown
51.1573048,13.8880288,Seifersdorf Brauereiweg,-1,no
51.1594491,13.8794066,"Seifersdorf, Kirchgasse",-1,no
51.1583333,13.9002756,"Wachau, Am Rittergut",0,unknown
51.1755737,13.6204141,Neuer anbau,0,unknown
51.1698734,13.9544078,"Lichtenberg, Abzweig Kleindittmannsdorf",0,unknown
51.1410293,13.5964198,"Coswig, Spitzgrund",0,unknown
51.1713534,13.5641435,Am Sandweg,0,unknown
51.1630282,13.7307536,"Bärnsdorf, Marsdorfer Straße",0,unknown
51.1505987,13.7342882,"Volkersdorf, Unterer Gasthof",0,unknown
51.1269825,13.5804897,Coswig Zentrum / Börse,2,yes
51.1234947,13.5795366,Bahnhof,0,unknown
51.1512904,13.567373,EV4,-1,no
51.1605161,13.5651324,EV4,0,unknown
51.1501851,13.7964337,"Dresden-Weixdorf, Alte Moritzburger Straße",0,unknown
51.1521131,13.7891225,Weixdorf Freiligrathstraße,-1,no
51.1111002,13.7632431,Am Hellerrand,-1,no
51.1684473,13.7918315,"Hufen, Weixdorfer Straße",0,unknown
51.0477942,13.7344092,Webergasse,0,unknown
51.0281329,13.7768095,Betriebshof Gruna,0,unknown
51.0655889,13.7418424,"Fernbus: Berlin, Rügen, Usedom, Darß",0,unknown
51.0124975,13.6625024,Freital Bf Potschappel,2,yes
51.013046,13.6629145,Freital Bf Potschappel,0,unknown
51.0097485,13.6608218,Turnerstraße,0,unknown
51.0371903,13.7926968,Junghansstraße,-1,no
51.0374491,13.7922603,Junghansstraße,-1,no
51.0116976,13.6639184,Platz der Jugend,0,unknown
51.0157815,13.7674795,Altleubnitz,0,unknown
51.0120599,13.7655426,Klosterteichplatz,0,unknown
51.0150725,13.7644582,Neuostra,0,unknown
51.0107265,13.7704059,Thomas-Mann-Straße,2,yes
50.9533234,13.7270068,"Kreischa, Abzweig Kleincarsdorf",2,yes
50.9829218,13.8657001,Friedensstraße,0,unknown
50.9805997,13.8694826,Rathaus,0,unknown
50.9822445,13.7149493,"Bannewitz, Welschhufe",1,limited
50.983389,13.7148954,"Bannewitz, Welschhufe",0,unknown
50.9789974,13.7174405,"Hänichen, Pulverweg",0,unknown
50.9792664,13.7176858,"Hänichen, Pulverweg",0,unknown
51.00592,13.8383786,Weißdornstraße,0,unknown
51.005583,13.8387225,Weißdornstraße,0,unknown
51.0024252,13.8421655,Bahnhofstraße,0,unknown
51.0025483,13.8416948,Bahnhofstraße,0,unknown
51.0027328,13.8418238,Bahnhofstraße,0,unknown
50.9994971,13.8296196,Bahnhof Niedersedlitz,-1,no
51.0004948,13.8299897,Försterlingstraße,0,unknown
50.9993511,13.8301438,Bahnhof Niedersedlitz,-1,no
50.9921129,13.7891852,Alter Postweg,2,yes
50.9909967,13.7878581,Arno-Schellenberg-Straße,-1,no
51.0821781,13.6914382,Washingtonstraße,2,yes
51.0819521,13.6958698,Elbepark,2,yes
51.0436674,13.7253063,Budapester Straße,2,yes
51.0390246,13.7392185,Gret-Palucca-Straße,2,yes
51.1392555,13.5744385,EV4,0,unknown
51.1607292,13.7995495,"Weixdorf, Promigberg",0,unknown
51.1195088,13.6325057,Radebeul Sonnenleite,0,unknown
50.9978416,13.5995394,"Großopitz, Abzw. Großopitz",0,unknown
50.9802118,13.8647403,Stadtzentrum,0,unknown
51.0260033,13.8856496,Malschendorf,0,unknown
51.0332569,13.8949728,Schönfeld-Markt,0,unknown
51.0174543,13.9107279,Zaschendorf,0,unknown
51.0411031,13.9233318,Schullwitz Gasthaus,0,unknown
51.031446,13.897996,Schönfeld Schule,0,unknown
51.0301758,13.901267,Am Friedhof,0,unknown
51.1320542,13.5860344,Coswig Kaufland,0,unknown
51.1207156,13.7637775,Flughafenstraße,2,yes
51.1208501,13.7636233,Flughafenstraße,2,yes
51.1623386,13.8416947,"Grünberg, Lausaer Straße",0,unknown
51.0469221,13.8090599,Oehmestraße,0,unknown
51.0475511,13.8087032,Oehmestraße,0,unknown
50.9905018,13.9444739,Jessen Gasthaus,0,unknown
50.9743887,13.9311784,Rudolf-Renner-Straße,0,unknown
50.9711659,13.6594217,Abzweig Rabenau,0,unknown
50.9712839,13.6593901,Abzweig Rabenau,0,unknown
51.0256564,13.7250883,Helmholtzstraße,1,limited
51.0258053,13.72374,Helmholtzstraße,1,limited
50.9663831,13.7188533,Possendorf Niederdorf,2,yes
51.1474351,13.5381022,Neusörnewitz Elbgaustraße,0,unknown
51.0240932,13.7360214,Stadtgutstraße,0,unknown
51.0227521,13.7500926,D.-Stockstraße,0,unknown
51.0245371,13.7532147,Schurichstraße,0,unknown
51.1259514,13.5867188,Melanchthonstr. Richtung Meißen,2,yes
51.0822237,13.7000987,Wächterstraße,2,yes
51.0854178,13.6837573,Fürstenhainer Straße,-1,no
51.0861149,13.682783,Fürstenhainer Straße,-1,no
51.0875482,13.6800064,Seewiesenweg,0,unknown
51.0881639,13.6792954,Seewiesenweg,0,unknown
51.0911998,13.67391,Spitzhausstraße,0,unknown
51.0914782,13.6738179,Spitzhausstraße,0,unknown
50.9619848,13.8563731,Dohna Bahnhof,0,unknown
51.1756778,13.5441648,Oberauer Straße,0,unknown
51.176032,13.5449942,Oberauer Straße,0,unknown
51.1747292,13.5477036,Weinböhlaer Straße◄,0,unknown
50.989541,13.6650971,Freital Rudeltstraße,0,unknown
50.9820405,13.6207544,Bahnhof Hainsberg West,-1,no
51.0312774,13.7511064,Weberplatz,1,limited
51.0312065,13.7507309,Weberplatz,1,limited
50.99536,13.7884413,Schulbus,0,unknown
51.1451804,13.5524073,Bahnhof Neusörnewitz,0,unknown
51.108692,13.6308023,Moritzburger Straße,0,unknown
51.1091913,13.6311516,Moritzburger Straße,0,unknown
51.1214094,13.6546333,Lößnitzgrund,0,unknown
51.1263903,13.6533675,Lößnitzgrundstraße Süd,0,unknown
51.1242493,13.6860542,Reichenberg Gutshof,0,unknown
51.1243672,13.6860254,Reichenberg Gutshof,0,unknown
51.127978,13.6790249,Reichenberg Gutshof,0,unknown
51.0427,13.6799917,Julius-Vahlteich-Straße,2,yes
50.9724712,13.6654308,Obernaundorf Gasthof,-1,no
50.972559,13.6654859,Obernaundorf Gasthof,-1,no
51.0679025,13.888319,"Weißig, Zum Hutbergblick",0,unknown
51.0681795,13.8859001,"Weißig, Radeberger Straße",0,unknown
51.0606606,13.8825182,"Weißig, Heidestraße",0,unknown
50.9927125,13.6569679,Am Hexenberg,0,unknown
51.0450907,13.702196,Betriebshalt Gröbelstraße,-1,no
51.0679219,13.6660214,Hammeraue,0,unknown
51.0679681,13.6665346,Hammeraue,0,unknown
50.9961638,13.6512296,Deuben Sachsenplatz,0,unknown
51.0087183,13.8590648,Kleinzschachwitz Fähre,0,unknown
51.0083012,13.8544751,"Kleinzschachwitz, Freystraße",-1,no
51.0537336,13.863877,"Dresden, Hornweg",1,limited
51.0452012,13.8647136,Zachengrundring,0,unknown
51.0457803,13.8662392,Zachengrundring,0,unknown
51.0794767,13.7139852,Mickten,2,yes
51.080541,13.713357,Mickten,-1,no
51.080803,13.7130076,"Mickten, Dreyßigplatz",-1,no
51.0788474,13.7075582,Trachauer Straße,2,yes
51.0763222,13.7321557,Liststraße,-1,no
51.038004,13.7462139,Lennéplatz,-1,no
51.037595,13.7483149,Lennéplatz,2,yes
51.0380098,13.7456354,Lennéplatz,-1,no
51.1388265,13.5971875,"Coswig, Alteheim",0,unknown
51.138685,13.59715,"Coswig, Altenheim",0,unknown
51.0539924,13.7813629,Augsburger Straße,0,unknown
51.0663304,13.7393473,Bf. Neustadt,-1,no
51.0504552,13.7131068,Cottaer Straße,-1,no
51.0582503,13.7232731,Weißeritzstraße,2,yes
51.0580443,13.7237825,Weißeritzstraße,-1,no
51.0849768,13.7274298,Trachenberger Platz,2,yes
51.021763,13.7104782,"Dresden, Kotteweg",2,yes
51.0989363,13.7688702,Moritzburger Weg,-1,no
51.1103516,13.7634487,Am Hellerrand,-1,no
51.112451,13.7597919,Heinrich-Tessenow-Weg,-1,no
51.1125548,13.7598695,Heinrich-Tessenow-Weg,-1,no
51.0023725,13.7978265,Georg-Palitzsch-Straße,-1,no
51.0076413,13.8022198,Albert-Wolf-Platz,-1,no
51.0078397,13.802916,Albert-Wolf-Platz,-1,no
51.0089768,13.8031504,Albert-Wolf-Platz,-1,no
51.0139057,13.8118966,Breitscheitstraße,0,unknown
51.0139993,13.8117208,Breitscheitstraße,0,unknown
51.016891,13.8155431,Abzweig nach Reick,0,unknown
51.0157199,13.8153976,Abzweig nach Reick,0,unknown
51.0167359,13.8154812,Abzweig nach Reick,0,unknown
51.027182,13.8011109,Rennplatzstraße,0,unknown
51.0275339,13.7995363,Rennplatzstraße,0,unknown
51.0282349,13.7956122,Rauensteinstraße,-1,no
51.0285616,13.7945631,Rauensteinstraße,-1,no
51.0305781,13.7876922,Liebstädter Straße,-1,no
51.0375473,13.7772975,Karcherallee,-1,no
51.0399442,13.7713329,Lipsiusstraße,2,yes
51.039346,13.7718567,Lipsiusstraße,2,yes
51.0420995,13.7659121,Comeniusplatz,-1,no
51.0542991,13.7194391,Schäferstraße,-1,no
51.0538792,13.7191253,Schäferstraße,-1,no
51.1278786,13.7927995,Industriepark Klotzsche,-1,no
51.0433055,13.7876071,Bergmannstraße,-1,no
50.9983208,13.8177902,Mühlenstraße,0,unknown
51.0343783,13.7473671,Strehlener Platz,-1,no
51.0671011,13.7834377,Angelikastraße,2,yes
51.0160542,13.5715653,Braunsdorf Wendeplatz,0,unknown
51.0161595,13.5717015,Braunsdorf Wendeplatz,0,unknown
50.967845,13.8756253,Geschwister-Scholl-Straße,0,unknown
50.9628799,13.865972,Am Kronenhügel,0,unknown
50.9697781,13.865326,Böhmischer Weg,-1,no
50.9699242,13.8655044,Böhmischer Weg,-1,no
50.9671887,13.8695592,Johanniter-Stift,0,unknown
50.9672926,13.8693279,Johanniter-Stift,0,unknown
50.9804557,13.8549183,Breitscheidstraße,0,unknown
50.9793906,13.85355,Einkaufszentrum,0,unknown
50.9866368,13.8292588,Krebser Straße,0,unknown
50.9701394,13.871171,Pestalozzi-Gymnasium,0,unknown
50.9691901,13.873703,Karl-Marx-Straße,0,unknown
50.9565405,13.9087662,Siedlung,0,unknown
50.962965,13.877686,Kuhtreppen,0,unknown
51.0749977,13.7605372,Hans-Oster-Straße,0,unknown
51.0747505,13.7609973,Hans-Oster-Straße,0,unknown
50.9990321,13.6472527,Deuben Busbahnhof,2,yes
51.0120857,13.6673724,Auenstraße,0,unknown
50.9630723,13.641341,Rabenau Markt,0,unknown
50.9755056,13.7155479,Käferbergstraße,0,unknown
51.0705204,13.7879483,Jägerpark Heideblick,0,unknown
51.0727743,13.7652529,Marienallee,0,unknown
51.0604528,13.7770608,K.-Kollwitz-Ufer,2,yes
51.0604614,13.7772854,K.-Kollwitz-Ufer,0,unknown
51.0666303,13.7766582,Waldschlößchen,0,unknown
51.059058,13.7771613,Pfotenhauerstraße,2,yes
51.0678528,13.776354,Waldschlößchen,0,unknown
51.0059526,13.7305974,"Bannewitz, Nöthnitzer Hang",0,unknown
51.0066029,13.6573465,Döhlen Platz des Friedens,2,yes
51.0618849,13.8487332,Grundstraße,0,unknown
51.0631416,13.9501264,Rossendorf Forschungszentrum,0,unknown
51.0672172,13.7769833,Waldschlößchen,0,unknown
51.0710612,13.7657757,Arno-Holz-Allee,0,unknown
51.1477484,13.5531543,Bahnhof,-1,no
51.0505078,13.8430017,"Dresden, Auf der Höhe",1,limited
50.9828618,13.95516,"Pirna Zatzschke, Weiße Taube",0,unknown
51.0438143,13.7259445,Ammon-/Budapester Str.,-1,no
51.1640463,13.5737554,Bahnhofstraße,0,unknown
51.0903546,13.7439161,Fabricestraße,0,unknown
51.0906444,13.7443206,Fabricestraße,0,unknown
51.0151669,13.6671748,Freital Fichtestraße,0,unknown
51.0562025,13.7810343,Universitätsklinikum,2,yes
51.0353569,13.9437352,Eschdorf Gasthaus,0,unknown
51.0364096,13.9498191,Eschdorf Brücke,0,unknown
51.0416048,13.9340105,Eschdorf Gassenberg,0,unknown
51.0700246,13.7753503,Waldschlößchenstraße,0,unknown
51.039109,13.9365705,Eschdorf Am Steinbruch,0,unknown
50.9980326,13.8793583,Söbrigener Straße,0,unknown
50.9597791,13.9474146,Pirna Landratsamt,2,yes
50.9928991,13.6481065,Freital Krönertstraße,0,unknown
50.9951514,13.6528532,Freital Körnerstraße,0,unknown
50.9939257,13.6497928,Freital Mühlenstraße,0,unknown
50.9938869,13.6498867,Freital Mühlenstraße,0,unknown
50.9950956,13.6529014,Freital Körnerstraße,0,unknown
50.9881466,13.6383827,Freital Bf Hainsberg,0,unknown
51.024529,13.653909,Siedlerstraße,0,unknown
51.022079,13.653785,Freitaler Straße,0,unknown
51.0220743,13.6536645,Freitaler Straße,0,unknown
51.024531,13.65378,Siedlerstraße,0,unknown
51.0067913,13.6507566,Lutherstraße,0,unknown
51.0068773,13.6507297,Lutherstraße,0,unknown
51.0012804,13.7143874,"Boderitz, Cunnersdorfer Straße",0,unknown
50.9962155,13.7022252,"Cunnersdorf, Marienschacht",0,unknown
50.9961609,13.7020584,"Cunnersdorf, Marienschacht",0,unknown
51.0125985,13.6899556,50,0,unknown
50.9576753,13.9434445,Pirna Bergstraße,0,unknown
50.9577956,13.9431589,Pirna Bergstraße,0,unknown
51.1148848,13.7805049,Stralsunder Straße,0,unknown
51.0191184,13.6382877,Kohlsdorfer Straße,0,unknown
51.087665,13.7297036,Betriebshof Trachenberge,2,yes
51.0888415,13.7310184,Maxim-Gorki-Straße,-1,no
51.0928929,13.7368409,Lauterbacher Straße,0,unknown
51.035531,13.8533533,"Pappritz, Kurze Straße",0,unknown
51.0354157,13.8867928,Schönfeld Schmiede,0,unknown
51.0354764,13.8869658,Schönfeld Schmiede,0,unknown
51.0315882,13.8978208,Schönfeld Schule,0,unknown
51.0720563,13.7890623,Mathias-Oeder-Straße,0,unknown
51.0776069,13.7498991,Schanzenstraße,0,unknown
51.1333579,13.5986528,Coswig Bergstraße,0,unknown
51.0607786,13.7123042,Betriebshof Waltherstraße,-1,no
51.1290204,13.5930133,"Coswig, Krankenhaus",0,unknown
51.1304261,13.5971005,"Coswig, Steinstraße",0,unknown
51.1288447,13.5885982,Jugendclub,0,unknown
